[{"cityName":"上海","hospitalInfos":[{"address":"上海市闵行区合川路3071号","geo":{"latitude":31.17763,"longitude":121.379479},"name":"上海市闵行区中医医院","phones":["021-51876888",null,null,null,null],"proofs":["该院\u003ca href\u003d\"http://www.tcmmh.com/entry/149\"\u003e页面\u003c/a\u003e信息显示：上海市闵行区卫生局、上海中医药大学附属龙华医院、西红柿投资控股有限公司合作共建闵行区中医医院，其中上海西红柿投资控股集团董事、执行总裁为林一平","\u003ca href\u003d\"https://m.imgur.com/ADiokDn\"\u003e 全国企业信用信息系统\u003c/a\u003e显示： 上海西红柿投资控股有限公司的法定代表人是陈金秀，自然人股东包括：李爱兰和陈金秀。"," \u003ca href\u003d\"https://webcache.googleusercontent.com/search?q\u003dcache:D5otmZNe-wMJ:www.ptshsh.com/index.php%3Fm%3Dcms%26q%3Dview%26id%3D33+\u0026cd\u003d1\u0026hl\u003den\u0026ct\u003dclnk\u0026lr\u003dlang_en%7Clang_zh-CN%7Clang_zh-TW\"\u003e谷歌缓存页面\u003c/a\u003e显示（这是谷歌对\u003ca href\u003d\"http://www.ptshsh.com/\"\u003e上海市莆田商会\u003c/a\u003e网页的缓存），陈金秀是上海市莆田商会名誉会长，籍贯：秀屿区东庄镇"," 通过“\u003ca href\u003d\"http://www.sgs.gov.cn/lz/etpsInfo.do?method\u003dindex\"\u003e上海市企业注册登记信息公开\u003c/a\u003e”地址\u003ca href\u003d\"https://imgur.com/wUqEpMU\"\u003e查询显示\u003c/a\u003e，上海莱茵医院有限公司于今年四月二十八日注销。该公司法定代表人为林一平。",null],"websets":["http://www.tcmmh.com",null,null,null,null]},{"address":"上海市市辖区浦东新区源深路155号","geo":{"latitude":31.239442,"longitude":121.530756},"name":"上海华美医疗美容医院 ","phones":["021-58856655","400-8806580",null,null,null],"proofs":["工信部备案信息，主办单位：上海华美医疗美容医院有限公司；网站负责人：蔡智俊；备案许可证号：沪ICP备13030768号-1   ","上海企业信息登记注册公开查询信息，上海华美医疗美容医院有限公司法定代表人：雷启龙；自然人股东：洪玲燕，黄志佳"," 黄志佳相关信息：\u003ca href\u003d\"http://zonghui.hxyjw.com/show-146921\"\u003e莆田青年发展促进会（珠海）第三次交流会顺利召开\u003c/a\u003e，（\u003ca href\u003d\"https://www.google.com/search?hl\u003den\u0026q\u003d%E9%BB%84%E5%BF%97%E4%BD%B3+site%3Awww.ptshsh.com#newwindow\u003d1\u0026hl\u003den\u0026q\u003d%E9%BB%84%E5%BF%97%E4%BD%B3+site:ptshsh.com\"\u003e中国）健康产业总会上海分会筹备大会在沪胜利召开 - 上海市莆田商会\u003c/a\u003e。 （请进一步求证。）",null,null],"websets":["http://www.shhuamei.cn",null,null,null,null]},{"address":"上海市徐汇区吴中路2号","geo":{"latitude":31.189357,"longitude":121.420663},"name":"上海万众医院 ","phones":["400-8892218",null,null,null,null],"proofs":["全国企业信用信息公示系统显示\u003ca href\u003d\"http://gsxt.sh.gov.cn/notice/notice/view?uuid\u003dPS0hIGEWVK63gZt7AqIcxkQZ5Db8QeQZ\u0026tab\u003d01\"\u003e上海万众医院有限公司法定代表人\u003c/a\u003e：占阳珊","占阳珊为莆田健康产业总商会常务副会长，上海市福建商会理事。确认参考：\u003ca href\u003d\"http://weibo.com/ttarticle/p/show?id\u003d2309351000123970977124987204\"\u003e新华网微博\u003c/a\u003e，\u003ca href\u003d\"https://webcache.googleusercontent.com/search?q\u003dcache:aEauriVoQOEJ:www.shptsh.com/index.php%3Fm%3Dcms%26q%3Dview%26id%3D94+\u0026cd\u003d2\u0026hl\u003den\u0026ct\u003dclnk\u0026lr\u003dlang_en%7Clang_zh-CN%7Clang_zh-TW\"\u003e上海市莆田商会网页谷歌缓存\u003c/a\u003e, 新闻“\u003ca href\u003d\"http://t1.cn-healthcare.com/article/20150401/content-472036.html\"\u003e同济大学与莆系医疗合作共建附属医院\u003c/a\u003e”。","用户反馈 \u003ca href\u003d\"http://health.dahe.cn/yypj/yhb/201207/t20120716_397644.html\"\u003e患者家属\u003c/a\u003e","用户反馈 \u003ca href\u003d\"http://webcache.googleusercontent.com/search?q\u003dcache%3A%2F%2Fhealth.dahe.cn%2Fyypj%2Fyhb%2F201207%2Ft20120716_397644.html\u0026rlz\u003d1C5CHFA_enUS659US659\u0026oq\u003dcache%3A%2F%2Fhealth.dahe.cn%2Fyypj%2Fyhb%2F201207%2Ft20120716_397644.html\u0026aqs\u003dchrome..69i57j69i58.4789j0j4\u0026sourceid\u003dchrome\u0026ie\u003dUTF-8\"\u003eGoogle缓存\u003c/a\u003e","用户反馈 \u003ca href\u003d\"http://bbs.tianya.cn/post-41-943030-1.shtml\"\u003e天涯网友\u003c/a\u003e"],"websets":["http://www.wz120.cc/",null,null,null,null]},{"address":"上海市松江区人民南路39号","geo":{"latitude":31.031347,"longitude":121.24715},"name":"上海安真医院 ","phones":["021-57711006",null,null,null,null]},{"address":"上海市浦东新区惠南镇城南路98号","geo":{"latitude":31.039953,"longitude":121.746705},"name":"上海福华医院 ","phones":["021-51961999",null,null,null,null]},{"address":"上海市青浦区公园路380号","geo":{"latitude":31.148965,"longitude":121.118921},"name":"上海玛丽女子医院 ","phones":["021-69726299",null,null,null,null],"websets":["http://www.mary120.cn/","http://www.shmary.cn/",null,null,null]},{"address":"上海市长宁区延安西路934号","name":"上海真爱女子医院 ","phones":["021-62269000","400-880-5522","4006-006-530",null,null],"websets":["http://www.shzhenai.com/[官网变了]","http://shzhenai.sh.aimeicity.com/","http://www.shzazx.com/",null,null]},{"geo":{"latitude":31.156646,"longitude":121.442923},"name":"上海沪申五官科医院 ","phones":["021-54305338",null,null,null,null],"websets":["http://www.hs5g.com",null,null,null,null]},{"address":"上海市徐汇区龙漕路218号","geo":{"latitude":31.169576,"longitude":121.442363},"name":"上海远大心胸医院 ","phones":["021-64829999",null,null,null,null],"websets":["http://www.yodak.net/",null,null,null,null]},{"address":"上海市徐汇区漕溪路133号(近万体馆)","name":"上海仁爱医院 ","phones":["021-64688888",null,null,null,null],"websets":["http://www.renai.cn/","http://en.renai.cn/",null,null,null]},{"geo":{"latitude":31.216069,"longitude":121.41164},"name":"上海天大医疗美容医院 ","phones":["021 -64080808",null,null,null,null],"websets":["http://www.tida.sh.cn","http://www.tida120.com",null,null,null]},{"geo":{"latitude":31.216125,"longitude":121.442947},"name":"上海五官科医院院方申明 www.fdeent.org/content/4408 [这个资料不好找]","websets":["http://www.er021.com",null,null,null,null]},{"name":"上海博爱医院"},{"address":"上海长宁区虹古路85号(虹桥开发区西侧)","geo":{"latitude":31.216621,"longitude":121.411435},"name":"上海新虹桥医院 [没有找到，可能是上海九龙男子医院]","phones":["021-62092255",null,null,null,null],"websets":["http://www.xinhongqiao.cn/",null,null,null,null]},{"address":"上海市闵行区虹梅路2181号（近吴中路）","geo":{"latitude":31.174789,"longitude":121.394826},"name":"上海虹桥医院 ","phones":["021-64659999",null,null,null,null],"websets":["http://www.shhqyy.com",null,null,null,null]},{"address":"上海市长宁区中山西路333号（近中山公园）","geo":{"latitude":31.216621,"longitude":121.411435},"name":"上海九龙男子医院 ","phones":["021-52739067","021-52732699",null,null,null],"websets":["http://www.long120.cn","http://www.shjlnzyy.com/",null,null,null]},{"address":"上海市普陀区曹安路1352号","geo":{"latitude":31.204532,"longitude":121.513697},"name":"上海城市女子医院 [没有找到,可能和上海南浦妇科医院是一家医院，可能]","phones":["021-51092999",null,null,null,null],"websets":["http://www.28567.hos.999120.net/",null,null,null,null]},{"address":"上海市长宁区剑河路595号4号楼","geo":{"latitude":31.207684,"longitude":121.368794},"name":"上海西郊骨科医院 ","phones":["021-52208866","136-5172-4016",null,null,null],"websets":["http://www.sdaj.net/","http://www.gb5u.com/","http://www.gkyy120.com/","http://www.cqgkzj.com/",null]},{"address":"上海市杨浦区宁国路313弄-4号","geo":{"latitude":31.265116,"longitude":121.535747},"name":"上海真美妇科医院 ","phones":["021-55099999",null,null,null,null],"websets":["http://www.giivi.com/","http://www.zdia.net/",null,null,null]},{"address":"上海市浦东新区浦东南路2250号（南浦大桥下）","geo":{"latitude":31.204532,"longitude":121.513697},"name":"上海南浦妇科医院 ","phones":["021-58891199","158-2160-8827",null,null,null],"proofs":["这是百度和谷歌发现网址最多的医院","最后一个网址http://yyk.qqyy.com/h14964/ 所属全球医院网http://www.qqyy.com/ \u003ca href\u003d\"https://m.imgur.com/VqVuGnj\"\u003e工信部备案信息\u003c/a\u003e为闽ICP备09014062号, 2014-11-06, 福州网健天下网络科技有限公司,","谷歌搜索关键词： 医院 site:*.qqyy.com 可以发现很多在这个名单上出现的医院，可以为进一步搜索参考。","天涯帖子 \u003ca href\u003d\"http://bbs.tianya.cn/post-828-784859-1.shtml\"\u003e上海南浦妇科医院的受害者 该怎么维权？\u003c/a\u003e","网址http://www.pmref.com/ 将自己称为上海松江区妇科医院，而电话仍然是021-58891199，并且在这个网页http://www.pmref.com/yyjs/51.html 显示为南浦妇科医院"],"websets":["http://www.nanpuyy.com/","http://www.brandv.org/","http://www.fyjx.org/","http://www.fdfzxy.org/","http://www.acgene.org/"]},{"geo":{"latitude":31.252047,"longitude":121.464702},"name":"上海健桥医院 ","phones":["021-56659999",null,null,null,null],"websets":["http://www.jqbyby.com",null,null,null,null]},{"geo":{"latitude":31.256257,"longitude":121.498543},"name":"上海长江医院 ","phones":["021-65022556",null,null,null,null],"websets":["http://www.cjhospital.com",null,null,null,null]},{"name":"解放军411医院 ","phones":["400-0789411",null,null,null,null],"websets":["http://www.sh411wgk.com",null,null,null,null]},{"name":"上海阳光中医医院 [没有找到]"},{"geo":{"latitude":31.373754,"longitude":121.497228},"name":"上海英港泌尿外科医院 "},{"geo":{"latitude":31.211873,"longitude":121.484515},"name":"上海阿波罗男子医院 "},{"geo":{"latitude":31.246994,"longitude":121.451857},"name":"上海玫瑰女子医院 "},{"geo":{"latitude":31.116296,"longitude":121.619872},"name":"上海康新医院 "},{"geo":{"latitude":31.210786,"longitude":121.552154},"name":"上海圣爱医院 "},{"geo":{"latitude":31.161389,"longitude":121.105799},"name":"上海同德医院 "},{"geo":{"latitude":31.202076,"longitude":121.696158},"name":"上海安平医院 "},{"name":"江东泌尿外科医院 "},{"geo":{"latitude":31.269384,"longitude":121.3869},"name":"上海九州泌尿医院 "},{"geo":{"latitude":31.159966,"longitude":121.115297},"name":"上海青城医院 "},{"geo":{"latitude":31.005671,"longitude":121.229852},"name":"上海博大医院 "},{"geo":{"latitude":31.373091,"longitude":121.235214},"name":"上海中亚医院 "},{"geo":{"latitude":31.22254,"longitude":121.47887},"name":"上海时光整形外科医院 "},{"geo":{"latitude":31.21632,"longitude":121.494477},"name":"上海市黄浦区中西医结合医院 "},{"geo":{"latitude":31.222431,"longitude":121.478888},"name":"上海曙康口腔医院 "},{"geo":{"latitude":31.201279,"longitude":121.712768},"name":"上海市浦东新区传染病医院 "},{"geo":{"latitude":31.186401,"longitude":121.59392},"name":"上海中医药大学附属曙光医院 "},{"geo":{"latitude":31.201276,"longitude":121.712772},"name":"浦东肝病专科医院 "},{"name":"众仁曙光医疗保健中心 "},{"geo":{"latitude":31.006851,"longitude":121.252281},"name":"上海市松江区方塔中医医院 "},{"geo":{"latitude":31.377061,"longitude":121.23477},"name":"上海嘉华医院 "},{"geo":{"latitude":31.178428,"longitude":121.406845},"name":"上海中骏医学科学研究所 "},{"address":"上海市虹口区凉城路545号","geo":{"latitude":31.290789,"longitude":121.470861},"name":"上海天伦医院 ","phones":["021-65667633","021-65259999","+9864006660102","021-55158829",null],"websets":["http://www.shtl120.com/","http://www.sh-byby.org/","http://www.shtlyy.com/","http://www.shtianlun.org/","http://www.tianlun100.com/"]},{"address":"上海市南汇区惠南镇人民西路99号","name":"上海国正医院 [没有找到]","phones":["021-58009999","18801856118",null,null,null],"websets":["http://23759.zhaopin.job120.com/","http://shgzyy.cn.b2b168.com/",null,null,null]},{"address":"上海长宁区延安西路789号美莱大厦, 曹家堰路88号 ","geo":{"latitude":31.213667,"longitude":121.43447},"name":"上海美莱医疗美容医院 ","phones":["021-2223 5555",null,null,null,null],"proofs":["所属为：美莱医疗美容(连锁)医院集团 http://www.mylike.com/，详见文末\"美莱医疗美容(连锁)医院集团\"为莆田系信息。",null,null,null,null],"websets":["http://www.shmylike.com/",null,null,null,null]},{"address":"上海市长宁区安龙路835号","geo":{"latitude":31.208658,"longitude":121.387326},"name":"上海东方丽人医疗美容医院","phones":["400-630-6997","1379444015",null,null,null],"proofs":[" 工信部备案信息： 闽ICP备15019526号，主办单位性质：个人；主办单位名称/网站负责人：胡森森； 网站名称：麦凯乐网(和网站显示名称严重不符) ",null,null,null,null],"websets":["http://www.4006306997.com/index.html",null,null,null,null]}]},{"cityName":"北京","hospitalInfos":[{"address":"北京市朝阳区东三里屯一号院  ","geo":{"latitude":39.935606,"longitude":116.45787},"name":"武警北京总队医院"},{"address":"北京市西城区月坛北街丁3号 ","geo":{"latitude":39.919332,"longitude":116.351631},"name":"武警北京市总队第二医院"},{"address":"北京市朝阳区朝阳门外大街227号 ","geo":{"latitude":39.924692,"longitude":116.441268},"name":"北京美莱医疗美容医院","phones":["010-56935111",null,null,null,null],"websets":["http://www.bjmylike.com/ ",null,null,null,null]},{"name":"北京俪人女子医院"},{"geo":{"latitude":39.935033,"longitude":116.396699},"name":"北京北海医院"},{"geo":{"latitude":39.932927,"longitude":116.385172},"name":"北京前海股骨头医院"},{"geo":{"latitude":40.1422,"longitude":117.122257},"name":"北京市慧慈医院"},{"name":"北京五洲女子医院"},{"name":"北京圣保罗男子医院"},{"geo":{"latitude":39.914616,"longitude":116.478277},"name":"北京建国医院"},{"geo":{"latitude":39.918447,"longitude":116.4357},"name":"北京天伦不孕不育医院"},{"geo":{"latitude":39.959839,"longitude":116.431},"name":"北京玛丽妇婴医院"},{"geo":{"latitude":39.88708,"longitude":116.462098},"name":"北京美联臣医疗美容医院"},{"geo":{"latitude":39.90716,"longitude":116.444927},"name":"北京慧中医院"},{"geo":{"latitude":39.911659,"longitude":116.186322},"name":"北京阳光丽人妇科医院"},{"geo":{"latitude":39.883613,"longitude":116.479124},"name":"北京恒安中医院"},{"geo":{"latitude":40.008575,"longitude":116.36546},"name":"北京京城皮肤病医院"},{"geo":{"latitude":40.029304,"longitude":116.350116},"name":"北京京北医院"},{"geo":{"latitude":40.130515,"longitude":116.642388},"name":"北京京顺医院","phones":["010-69423999",null,null,null,null],"websets":["http://www.bjjsyy.com/",null,null,null,null]},{"geo":{"latitude":39.844383,"longitude":116.415146},"name":"北京瑞京糖尿病医院"},{"geo":{"latitude":39.922075,"longitude":116.494995},"name":"北京众安康中医骨科"},{"geo":{"latitude":40.023324,"longitude":116.418567},"name":"北京麦瑞骨科医院"},{"geo":{"latitude":39.880918,"longitude":116.375751},"name":"北京健宫医院"},{"geo":{"latitude":39.955468,"longitude":116.274945},"name":"北京华医中西医结合皮肤病医院"},{"geo":{"latitude":39.952002,"longitude":116.38003},"name":"北京德胜门中医院"},{"geo":{"latitude":39.96312,"longitude":116.382538},"name":"北京军都医院"},{"geo":{"latitude":39.98876,"longitude":116.366813},"name":"北京慈康医院"},{"geo":{"latitude":39.987199,"longitude":116.334853},"name":"北京艾丽斯妇科医院","websets":["http://www.fuke120.cn/",null,null,null,null]}]},{"cityName":"苏州","hospitalInfos":[{"geo":{"latitude":31.280094,"longitude":120.598805},"name":"苏州东吴医院","phones":["0512-68120120",null,null,null,null],"websets":["http://www.szdwyy.com",null,null,null,null]},{"geo":{"latitude":31.303063,"longitude":120.594304},"name":"苏州华美美莱整形医院","phones":["400-8816499",null,null,null,null],"websets":["http://www.mlmryy.com",null,null,null,null]},{"geo":{"latitude":31.370115,"longitude":120.98032},"name":"昆山虹桥医院","phones":["0512-57399999",null,null,null,null],"websets":["http://www.ksyy120.com",null,null,null,null]},{"geo":{"latitude":31.656709,"longitude":120.74502},"name":"常熟东方妇科医院","phones":["0512-51531111",null,null,null,null],"websets":["http://www.csfk.net",null,null,null,null]},{"geo":{"latitude":31.65489,"longitude":120.73905},"name":"常熟仁爱医院"},{"geo":{"latitude":31.314763,"longitude":120.958154},"name":"昆山阳光医院"},{"geo":{"latitude":31.297108,"longitude":120.55871},"name":"苏州圣爱医院","phones":["0512-68078047",null,null,null,null],"websets":["http://www.szsayy.com",null,null,null,null]},{"name":"苏州新医科"},{"geo":{"latitude":31.874134,"longitude":120.533577},"name":"张家港朝阳五官科医院","phones":["0512-58983999",null,null,null,null],"websets":["http://www.cy5g.com",null,null,null,null]}]},{"cityName":"天津","hospitalInfos":[{"geo":{"latitude":39.053014,"longitude":117.231451},"name":"天津坤如玛丽医院","phones":["022-28285031",null,null,null,null],"websets":["http://www.tjkrml.com",null,null,null,null]},{"geo":{"latitude":39.131537,"longitude":117.22616},"name":"天津华北医院","phones":["022-24418755",null,null,null,null],"websets":["http://www.huabeihp.com",null,null,null,null]},{"geo":{"latitude":39.030361,"longitude":117.688331},"name":"天津华厦医院","phones":["022-28230188",null,null,null,null],"websets":["http://www.huaxiahp.com",null,null,null,null]},{"geo":{"latitude":39.109928,"longitude":117.237525},"name":"天津丽人女子医院","phones":["022-24156655",null,null,null,null],"websets":["http://www.lr16.com","http://www.tjlrfk.com","http://lr16.tj.aimeicity.com",null,null]},{"geo":{"latitude":39.12802,"longitude":117.162962},"name":"天津华山医院","phones":["022-58815889",null,null,null,null],"websets":["http://www.tjhsfk.com","http://www.bevall.com",null,null,null]},{"geo":{"latitude":39.131074,"longitude":117.152242},"name":"天津怡泰生殖专科医院","phones":["022-27113333",null,null,null,null],"websets":["暂缺",null,null,null,null]},{"geo":{"latitude":39.134636,"longitude":117.203036},"name":"天津现代女子医院","phones":["022-24459999",null,null,null,null],"websets":["http://www.022nz.com",null,null,null,null]},{"geo":{"latitude":39.131074,"longitude":117.152242},"name":"天津怡泰医院","phones":["022-27113333",null,null,null,null]},{"name":"天津乐园医院","phones":["022-28278888",null,null,null,null],"websets":["http://www.28278888.com",null,null,null,null]},{"geo":{"latitude":39.17679,"longitude":117.180359},"name":"天津长庚耳鼻喉医院","phones":["400-6703120",null,null,null,null],"websets":["http://www.tjcg120.com",null,null,null,null]},{"address":"天津市南开区黄河道38号","geo":{"latitude":39.137727,"longitude":117.168484},"name":"天津阿波罗医院","phones":["022-28111999",null,null,null,null],"websets":["http://www.nkyy022.com/",null,null,null,null]},{"address":"天津市河东区华昌道80-92号(裕阳大厦底商)","geo":{"latitude":39.136196,"longitude":117.219498},"name":"天津美莱医学美容医院","phones":["022-24239999",null,null,null,null]},{"address":"天津市河北区黄纬路60号","name":"天津254医院/解放军254医院 部分科室","phones":["022-26220266",null,null,null,null],"websets":["http://www.yafrlaowuw.com/",null,null,null,null]},{"address":"天津市红旗南路600号","name":"解放军464医院/天津男科医院 部分科室","phones":["400-022-0995",null,null,null,null]},{"address":"天津和平区多伦道185号","geo":{"latitude":39.124106,"longitude":117.180639},"name":"天津解放军第272医院","phones":["400-022-3272",null,null,null,null]}]},{"cityName":"广州","hospitalInfos":[{"name":"广州华美美莱整形医院"},{"geo":{"latitude":23.156888,"longitude":113.308579},"name":"广州现代医院"},{"geo":{"latitude":23.132695,"longitude":113.336039},"name":"广州长安医院"},{"geo":{"latitude":23.171126,"longitude":113.249028},"name":"广州益寿医院"},{"geo":{"latitude":23.17405,"longitude":113.236106},"name":"广州利德医院"},{"name":"番禺东方俪人医院"},{"geo":{"latitude":22.95899,"longitude":113.354931},"name":"番禺玛莉亚肛肠医院"},{"geo":{"latitude":23.137713,"longitude":113.314586},"name":"广州圣亚泌尿外科医院"},{"geo":{"latitude":23.099233,"longitude":113.236774},"name":"广州女子医院"},{"geo":{"latitude":23.091542,"longitude":113.312558},"name":"广州市江南医院"},{"geo":{"latitude":23.104056,"longitude":113.55528},"name":"广州济慈医院"},{"geo":{"latitude":23.132907,"longitude":113.29699},"name":"广东民安医院"},{"geo":{"latitude":23.119975,"longitude":113.414888},"name":"广州长泰医院"},{"geo":{"latitude":23.121641,"longitude":113.618705},"name":"广州健安医院"},{"geo":{"latitude":23.131926,"longitude":113.313292},"name":"广州458医院"},{"geo":{"latitude":23.397147,"longitude":113.205946},"name":"广州花都人爱医院"},{"geo":{"latitude":23.172751,"longitude":113.257867},"name":"广州远东美容医院"},{"geo":{"latitude":24.788288,"longitude":113.596847},"name":"广东福康医院"}]},{"cityName":"珠海","hospitalInfos":[{"geo":{"latitude":22.226506,"longitude":113.560593},"name":"珠海惠爱医院"},{"geo":{"latitude":22.246692,"longitude":113.57369},"name":"珠海九龙医院"},{"geo":{"latitude":22.249431,"longitude":113.587075},"name":"珠海阳光医院"}]},{"cityName":"惠州","hospitalInfos":[{"geo":{"latitude":23.074917,"longitude":114.402995},"name":"惠州仁德妇科医院"},{"geo":{"latitude":22.775112,"longitude":114.468643},"name":"惠阳女子医院"},{"geo":{"latitude":23.075236,"longitude":114.411461},"name":"惠州东江泌尿专科医院"}]},{"cityName":"中山","hospitalInfos":[{"geo":{"latitude":22.511887,"longitude":113.394716},"name":"中山现代妇科医院"},{"geo":{"latitude":22.552989,"longitude":113.458175},"name":"中山市国丹中医院"},{"geo":{"latitude":22.684296,"longitude":113.238387},"name":"中山和平中医院"},{"geo":{"latitude":22.503317,"longitude":113.37843},"name":"中山阳光医院"}]},{"cityName":"汕头","hospitalInfos":[{"geo":{"latitude":23.372189,"longitude":116.731316},"name":"汕头妇产医院"}]},{"cityName":"东莞","hospitalInfos":[{"geo":{"latitude":23.059268,"longitude":113.800729},"name":"东莞现代妇科医院"},{"name":"塘厦康桥医院"},{"geo":{"latitude":23.017933,"longitude":113.737671},"name":"东莞康桥妇科医院"},{"geo":{"latitude":22.794032,"longitude":113.782304},"name":"东莞乌沙医院"},{"geo":{"latitude":22.814334,"longitude":113.695461},"name":"东莞万福妇产医院"},{"geo":{"latitude":22.960087,"longitude":113.9134},"name":"东莞南华妇科医院"},{"geo":{"latitude":23.040823,"longitude":113.778713},"name":"东莞东方泌尿专科医院"},{"address":"东莞南城莞太大道(广彩城酒店旁)","geo":{"latitude":22.999442,"longitude":113.729291},"name":"东莞玛丽亚妇产医院","phones":["0769-22993333",null,null,null,null],"websets":["http://www.dgmaria.cn/",null,null,null,null]}]},{"cityName":"江门","hospitalInfos":[{"geo":{"latitude":22.583471,"longitude":113.078844},"name":"江门玛丽妇科医院"},{"geo":{"latitude":22.588535,"longitude":113.081662},"name":"江门福康医院"}]},{"cityName":"肇庆","hospitalInfos":[{"geo":{"latitude":23.05598,"longitude":112.491986},"name":"肇庆福康医院"},{"address":"肇庆市端州区二塔路中段（市二人民医院前行20米左转）","geo":{"latitude":23.055005,"longitude":112.497962},"name":"肇庆现代男科医院","phones":["0758-2221120",null,null,null,null],"websets":["http://zqnkyy120.com/",null,null,null,null]}]},{"cityName":"佛山","hospitalInfos":[{"geo":{"latitude":23.169216,"longitude":112.886902},"name":"佛山三水女子医院"},{"name":"顺德广济中医院"},{"geo":{"latitude":22.813158,"longitude":113.238929},"name":"顺德新世纪泌尿医院"},{"geo":{"latitude":22.989475,"longitude":113.197656},"name":"顺德庄头医院"},{"geo":{"latitude":22.841836,"longitude":113.240162},"name":"顺德阳光康复医院"},{"name":"顺德阳新侠义道光康复医院"}]},{"cityName":"深圳","hospitalInfos":[{"geo":{"latitude":22.541225,"longitude":114.09049},"name":"深圳美莱美容医院"},{"geo":{"latitude":22.537469,"longitude":114.084298},"name":"深圳福华中西医结合医院"},{"geo":{"latitude":22.552201,"longitude":114.104969},"name":"深圳博爱医院"},{"geo":{"latitude":22.546976,"longitude":114.107701},"name":"深圳曙光医院"},{"geo":{"latitude":22.543538,"longitude":114.123901},"name":"深圳远东妇儿科医院"},{"geo":{"latitude":22.520267,"longitude":114.041211},"name":"深圳仁爱医院"},{"geo":{"latitude":22.541057,"longitude":113.922113},"name":"深圳和美妇儿科医院"},{"geo":{"latitude":22.584808,"longitude":114.118218},"name":"深圳仁康医院"},{"geo":{"latitude":22.595937,"longitude":114.125982},"name":"深圳罗岗医院"},{"geo":{"latitude":22.651396,"longitude":114.078581},"name":"深圳雪象医院"},{"geo":{"latitude":22.629059,"longitude":114.038012},"name":"深圳健安医院"},{"geo":{"latitude":22.693126,"longitude":114.345218},"name":"深圳华南妇科医院"},{"geo":{"latitude":22.632687,"longitude":113.950292},"name":"深圳国瑞泌尿外科医院"},{"geo":{"latitude":22.556937,"longitude":114.10512},"name":"深圳韩美医疗美容医院"},{"geo":{"latitude":22.700744,"longitude":114.33062},"name":"深圳健丰医院"},{"geo":{"latitude":22.658409,"longitude":114.012545},"name":"深圳龙济医院"},{"geo":{"latitude":22.575374,"longitude":113.871841},"name":"深圳同仁妇科医院"},{"geo":{"latitude":22.691368,"longitude":113.833887},"name":"深圳凤凰医院"},{"geo":{"latitude":22.540299,"longitude":114.111963},"name":"深圳阳光医院"},{"geo":{"latitude":22.646219,"longitude":114.020002},"name":"深圳中仁泌尿外科医院"}]},{"cityName":"昆明","hospitalInfos":[{"geo":{"latitude":25.049006,"longitude":102.715026},"name":"昆明华美美莱整形医院"},{"geo":{"latitude":25.054319,"longitude":102.71817},"name":"云南玛莉亚女子医院"},{"geo":{"latitude":25.054319,"longitude":102.71817},"name":"云南玛莉亚医院"},{"geo":{"latitude":25.042454,"longitude":102.693052},"name":"昆明西昌路医院"},{"geo":{"latitude":25.007932,"longitude":102.681244},"name":"昆明阳光医院"},{"geo":{"latitude":25.066933,"longitude":102.708668},"name":"昆明仁爱医院"},{"geo":{"latitude":25.060651,"longitude":102.732482},"name":"昆明九州医院"},{"name":"解放军478医院妇产中心"},{"geo":{"latitude":25.060651,"longitude":102.732482},"name":"昆明九州泌尿医院"},{"geo":{"latitude":25.049876,"longitude":102.686306},"name":"云南现代妇产科医院"},{"geo":{"latitude":25.049192,"longitude":102.697601},"name":"昆明天伦妇产医院"},{"geo":{"latitude":25.070911,"longitude":102.730801},"name":"云南同仁新华医院"},{"geo":{"latitude":25.007932,"longitude":102.681244},"name":"昆明阳光医院"},{"geo":{"latitude":25.027877,"longitude":102.693397},"name":"昆明曙光医院"},{"geo":{"latitude":25.060651,"longitude":102.732482},"name":"云南九洲医院"},{"geo":{"latitude":25.024173,"longitude":102.724449},"name":"云南协和医院"},{"geo":{"latitude":25.053937,"longitude":102.714159},"name":"云南肛泰肛肠医院"},{"geo":{"latitude":24.972579,"longitude":102.740241},"name":"云南骨科医院"},{"name":"武警云南省边防总队医院糖尿病专科"},{"geo":{"latitude":25.02353,"longitude":102.716138},"name":"昆明东大肛肠医院"},{"geo":{"latitude":25.052916,"longitude":102.689583},"name":"昆明中英安琪儿妇产医院"},{"geo":{"latitude":25.066397,"longitude":102.708712},"name":"昆明丽都仁爱医疗美容医院"},{"geo":{"latitude":25.001179,"longitude":102.71194},"name":"昆明骨科医院"},{"geo":{"latitude":25.008924,"longitude":102.746122},"name":"昆明强生泌尿专科医院"},{"geo":{"latitude":25.054061,"longitude":102.716858},"name":"昆明华希医院"},{"geo":{"latitude":25.053338,"longitude":102.721648},"name":"昆明军都三三九医院"},{"geo":{"latitude":25.071649,"longitude":102.744105},"name":"解放军五三三医院"},{"name":"解放军四七八医院妇产中心"},{"geo":{"latitude":25.055143,"longitude":102.719528},"name":"昆明泌尿生殖专科医院"},{"geo":{"latitude":25.046492,"longitude":102.725936},"name":"昆明妇产医院"},{"geo":{"latitude":25.036724,"longitude":102.696303},"name":"昆明和万家妇科医院"},{"geo":{"latitude":24.981921,"longitude":102.720978},"name":"昆明圣安妇产医院"},{"geo":{"latitude":25.063881,"longitude":102.664553},"name":"昆明宝岛妇产医院"},{"geo":{"latitude":25.003353,"longitude":102.722239},"name":"昆明送子鸟不孕不育医院"},{"geo":{"latitude":25.053333,"longitude":102.726265},"name":"昆明男健医院"},{"geo":{"latitude":25.037977,"longitude":102.711973},"name":"昆明都市俪人医院"},{"geo":{"latitude":25.065504,"longitude":102.709565},"name":"昆明普瑞眼科医院"},{"geo":{"latitude":25.009756,"longitude":102.709253},"name":"昆明当代妇产医院"}]},{"cityName":"玉溪","hospitalInfos":[{"geo":{"latitude":24.353543,"longitude":102.537622},"name":"玉溪九州医院"},{"geo":{"latitude":24.360319,"longitude":102.562484},"name":"玉溪民康医院"}]},{"cityName":"普洱","hospitalInfos":[{"geo":{"latitude":22.800428,"longitude":100.978439},"name":"普洱云美妇产医院"}]},{"cityName":"文山","hospitalInfos":[{"geo":{"latitude":23.37417,"longitude":104.232765},"name":"文山曙光医院"},{"geo":{"latitude":23.36688,"longitude":104.23455},"name":"文山圣玛妇产医院"}]},{"cityName":"临沧","hospitalInfos":[{"geo":{"latitude":23.877874,"longitude":100.087921},"name":"临沧市临翔区华西医院"}]},{"cityName":"昭通","hospitalInfos":[{"geo":{"latitude":27.329994,"longitude":103.723675},"name":"昭通玛丽妇产医院"}]},{"cityName":"丽江","hospitalInfos":[{"geo":{"latitude":26.859965,"longitude":100.235805},"name":"丽江九洲医院"}]},{"cityName":"保山","hospitalInfos":[{"geo":{"latitude":25.10175,"longitude":99.161125},"name":"保山现代妇产医院"}]},{"cityName":"曲靖","hospitalInfos":[{"geo":{"latitude":25.65888,"longitude":104.255288},"name":"富源阳光医院"},{"geo":{"latitude":25.48011,"longitude":103.79956},"name":"曲靖九州医院"},{"geo":{"latitude":25.506093,"longitude":103.76846},"name":"曲靖曙光泌尿专科医院"}]},{"cityName":"重庆","hospitalInfos":[{"geo":{"latitude":29.602327,"longitude":106.549546},"name":"重庆华美美莱整形医院"},{"name":"重庆华山中医乳腺病医院"},{"geo":{"latitude":29.587845,"longitude":106.525906},"name":"重庆坤如玛丽医院"},{"geo":{"latitude":29.529203,"longitude":106.573004},"name":"重庆现代女子医院"},{"geo":{"latitude":29.583642,"longitude":106.505648},"name":"重庆都市丽人医院"},{"geo":{"latitude":30.8144,"longitude":108.365329},"name":"重庆万州博生医院"},{"geo":{"latitude":30.814394,"longitude":108.36532},"name":"重庆万州美妇产医院"},{"geo":{"latitude":29.710628,"longitude":107.396231},"name":"涪陵博生和美妇产医院"},{"geo":{"latitude":29.552898,"longitude":106.459144},"name":"重庆市爱德华医院"},{"geo":{"latitude":29.527805,"longitude":106.514094},"name":"重庆五洲女子医院"},{"geo":{"latitude":29.575503,"longitude":106.498034},"name":"重庆安琪儿妇产医院"},{"geo":{"latitude":29.581547,"longitude":106.528798},"name":"重庆阳光医院"},{"geo":{"latitude":30.805496,"longitude":108.379957},"name":"万州阳光眼科医院"},{"geo":{"latitude":29.552898,"longitude":106.459144},"name":"重庆爱德华医院"},{"geo":{"latitude":29.580122,"longitude":106.521235},"name":"重庆生殖健康医院"},{"geo":{"latitude":29.53979,"longitude":106.523732},"name":"重庆红楼医院"},{"geo":{"latitude":29.574785,"longitude":106.540317},"name":"解放军第324医院"},{"geo":{"latitude":29.6944,"longitude":107.400091},"name":"涪陵三峡医院"},{"geo":{"latitude":29.56993,"longitude":106.534193},"name":"重庆红十字会医院"},{"name":"重庆红楼医院雅安解放军第三十七医院"}]},{"cityName":"成都","hospitalInfos":[{"geo":{"latitude":30.576419,"longitude":103.909108},"name":"成都长征医院"},{"geo":{"latitude":30.637426,"longitude":104.099001},"name":"成都永康医院"},{"geo":{"latitude":30.669948,"longitude":104.06642},"name":"成都丽人女子医院"},{"geo":{"latitude":30.6534,"longitude":104.087717},"name":"成都博爱医院"},{"geo":{"latitude":30.608089,"longitude":104.080446},"name":"成都安琪儿妇产医院"},{"geo":{"latitude":30.672056,"longitude":104.058428},"name":"成都蜀都乳腺医院"},{"geo":{"latitude":23.13834,"longitude":113.314461},"name":"圣贝国际牙科旗舰医院"},{"geo":{"latitude":30.991332,"longitude":103.628531},"name":"成都糖尿病专科医院"},{"geo":{"latitude":30.658861,"longitude":104.040371},"name":"成都曙光男科医院"},{"geo":{"latitude":30.66875,"longitude":104.073284},"name":"成都瑞恩糖尿病医院"},{"geo":{"latitude":30.683879,"longitude":104.050639},"name":"成都玛利亚妇产医院"},{"geo":{"latitude":30.653569,"longitude":104.041173},"name":"成都欧亚男科医院"},{"geo":{"latitude":30.582358,"longitude":104.06601},"name":"成都玛利亚天府国际妇产儿童医院"},{"geo":{"latitude":30.686222,"longitude":104.061107},"name":"成都新世纪肛肠医院"},{"geo":{"latitude":30.711649,"longitude":104.56289},"name":"四川阳光妇科医院"},{"name":"成都济民女子医院"},{"geo":{"latitude":30.63378,"longitude":104.07224},"name":"成都维多利亚女子医院"},{"geo":{"latitude":30.662117,"longitude":104.023819},"name":"成都仁品耳鼻喉专科医院"},{"geo":{"latitude":30.752825,"longitude":103.966526},"name":"成都天康医院"},{"geo":{"latitude":30.664374,"longitude":104.043615},"name":"成都养和堂综合门诊部"},{"geo":{"latitude":30.648127,"longitude":104.094648},"name":"成都中仁泌尿外科医院"},{"geo":{"latitude":30.633515,"longitude":104.076566},"name":"成都东大肛肠医院"},{"geo":{"latitude":30.644506,"longitude":104.021021},"name":"成都博大男科医院"},{"geo":{"latitude":30.633929,"longitude":104.027906},"name":"成都博润白癜风医院"},{"geo":{"latitude":30.638021,"longitude":104.018169},"name":"成都西南骨科医院"},{"geo":{"latitude":30.670354,"longitude":104.076303},"name":"成都康新妇科医院"},{"geo":{"latitude":28.747488,"longitude":104.597278},"name":"成都肛泰肛肠医院"},{"geo":{"latitude":30.569169,"longitude":104.266956},"name":"成都龙都医院"},{"geo":{"latitude":30.63396,"longitude":104.053759},"name":"成都天大不孕不育医院"},{"name":"成都华美美莱整形医院"},{"geo":{"latitude":30.669948,"longitude":104.06642},"name":"成都送子鸟不孕不育医院"},{"geo":{"latitude":30.67329,"longitude":104.060526},"name":"成都九龙医院"},{"geo":{"latitude":30.643816,"longitude":103.975152},"name":"成都喜得儿不孕不育医院"},{"geo":{"latitude":30.620222,"longitude":104.059513},"name":"四川华美紫馨医学美容医院"},{"geo":{"latitude":30.670024,"longitude":104.040177},"name":"四川省生殖健康研究中心附属生殖专科医院"},{"geo":{"latitude":30.637393,"longitude":104.015131},"name":"四川肛肠医院"},{"geo":{"latitude":23.13834,"longitude":113.314461},"name":"圣贝国际牙科旗舰医院"},{"geo":{"latitude":30.641423,"longitude":104.091357},"name":"成都玛丽亚天府国际妇产儿童医院"},{"geo":{"latitude":30.696185,"longitude":104.025174},"name":"成都市西区医院产科"},{"name":"绵阳玛丽亚妇产儿童医院"},{"geo":{"latitude":29.584644,"longitude":103.755014},"name":"武警四川总队医院"},{"geo":{"latitude":30.711649,"longitude":104.56289},"name":"成都阳光妇科医院"},{"geo":{"latitude":30.670024,"longitude":104.040177},"name":"四川生殖健康中心专科医院"},{"geo":{"latitude":30.671524,"longitude":104.027127},"name":"武警四川省消防总队医院"},{"geo":{"latitude":31.473688,"longitude":104.737625},"name":"四川中医药高等专科学校附属医院"},{"address":"成都市青华路31号（杜甫草堂北大门旁）","geo":{"latitude":30.662328,"longitude":104.029036},"name":"成都美莱医学美容医院","phones":[" 028-6826 8888 ",null,null,null,null],"websets":["http://www.scmylike.com/",null,null,null,null]}]},{"cityName":"雅安","hospitalInfos":[{"name":"解放军第三十七医院"}]},{"cityName":"绵阳","hospitalInfos":[{"geo":{"latitude":31.458185,"longitude":104.714225},"name":"四川绵阳美康医院"}]},{"cityName":"遵义","hospitalInfos":[{"name":"遵义女子医院"}]},{"cityName":"凉山","hospitalInfos":[{"geo":{"latitude":27.885731,"longitude":102.256119},"name":"凉山妇产医院"},{"geo":{"latitude":27.887471,"longitude":102.238761},"name":"凉山男科医院"},{"geo":{"latitude":27.887471,"longitude":102.238761},"name":"凉山华西医院"},{"geo":{"latitude":27.885141,"longitude":102.255785},"name":"凉山生殖健康医院"},{"geo":{"latitude":27.88111,"longitude":102.242472},"name":"凉山骨科医院"}]},{"cityName":"南充","hospitalInfos":[{"geo":{"latitude":30.805004,"longitude":106.088969},"name":"南充解放军51医院"},{"geo":{"latitude":30.795742,"longitude":106.095575},"name":"南充东大肛肠医院"}]},{"cityName":"乐山","hospitalInfos":[{"geo":{"latitude":29.584644,"longitude":103.755014},"name":"武警四川总队医院"}]},{"cityName":"福州","hospitalInfos":[{"address":"福州市晋安区塔头路177号","geo":{"latitude":26.089027,"longitude":119.32196},"name":"福州华美美莱整形医院","phones":["0591-22966666",null,null,null,null],"websets":["http://www.fzhmzx.com/",null,null,null,null]},{"geo":{"latitude":26.08053,"longitude":119.310443},"name":"福州鼓楼医院"},{"geo":{"latitude":26.108603,"longitude":119.295},"name":"福州现代妇产医院"},{"geo":{"latitude":26.100819,"longitude":119.28812},"name":"福州左海医院"},{"name":"福州总医院第二附属医院"},{"geo":{"latitude":25.720968,"longitude":119.386795},"name":"福清阳光女子医院"},{"geo":{"latitude":26.055394,"longitude":119.33988},"name":"福州东南女子医院"},{"geo":{"latitude":26.072434,"longitude":119.353591},"name":"福州福兴妇产医院"},{"geo":{"latitude":26.073061,"longitude":119.359351},"name":"福州誉盛医院"}]},{"cityName":"舟山","hospitalInfos":[{"geo":{"latitude":30.014042,"longitude":122.103546},"name":"舟山现代妇科医院","websets":["http://www.zsxdfk.com",null,null,null,null]},{"geo":{"latitude":30.014576,"longitude":122.116596},"name":"舟山市千岛医院"},{"geo":{"latitude":30.014042,"longitude":122.103546},"name":"舟山市千岛医院妇产科"}]},{"cityName":"厦门","hospitalInfos":[{"geo":{"latitude":24.48339,"longitude":118.123538},"name":"厦门登特口腔医院"},{"geo":{"latitude":24.488101,"longitude":118.123367},"name":"厦门友好妇科"},{"geo":{"latitude":24.506864,"longitude":118.117658},"name":"厦门湖里康乐门诊部"},{"geo":{"latitude":24.467674,"longitude":118.172988},"name":"厦门前埔医院"}]},{"cityName":"莆田","hospitalInfos":[{"geo":{"latitude":25.424616,"longitude":119.004417},"name":"莆田丽人妇科医院"},{"geo":{"latitude":25.310517,"longitude":119.103006},"name":"莆田盛兴医院"},{"geo":{"latitude":25.428891,"longitude":119.01276},"name":"莆田中西医肛肠医院"},{"geo":{"latitude":25.438769,"longitude":119.014924},"name":"莆田口腔医院"}]},{"cityName":"宁波","hospitalInfos":[{"geo":{"latitude":29.865482,"longitude":121.557242},"name":"宁波美莱整形美容医院","websets":["http://www.nbmylike.com",null,null,null,null]},{"geo":{"latitude":29.897918,"longitude":121.581723},"name":"宁波博爱医院"},{"geo":{"latitude":29.864736,"longitude":121.58262},"name":"宁波虹桥医院","websets":["http://www.nbhqyy.com",null,null,null,null]},{"geo":{"latitude":29.859696,"longitude":121.550134},"name":"宁波欧亚男科医院","websets":["http://www.nbnkyy.com",null,null,null,null]},{"geo":{"latitude":29.891912,"longitude":121.566423},"name":"宁波甬城医院"},{"geo":{"latitude":30.177476,"longitude":121.233733},"name":"慈溪圣爱医院","websets":["http://www.cxsayy.net",null,null,null,null]}]},{"cityName":"杭州","hospitalInfos":[{"geo":{"latitude":29.969607,"longitude":119.726381},"name":"杭州新东方妇产科医院"},{"geo":{"latitude":30.238261,"longitude":120.193118},"name":"杭州玛莉亚妇女医院","websets":["http://www.hzmly.com",null,null,null,null]},{"geo":{"latitude":30.247645,"longitude":120.18396},"name":"杭州虹桥医院","websets":["http://www.hzhqyy.com",null,null,null,null]},{"geo":{"latitude":30.258667,"longitude":120.180275},"name":"杭州建国医院"},{"address":"杭州市天目山路319号 ","geo":{"latitude":30.264361,"longitude":120.103014},"name":"杭州天目山妇产医院","proofs":["确认莆田系，参见文末“上海美迪亚医院投资集团有限公司”条目！","\u003ca href\u003d\"http://bbs.tianya.cn/post-free-1929196-1.shtml\"\u003e天涯帖子: 杭州天目山医院，你到底黑不黑？\u003c/a\u003e",null,null,null],"websets":["http://www.97120.cn/","http://www.tmsfk.com/",null,null,null]},{"geo":{"latitude":30.148765,"longitude":120.280172},"name":"杭州萧山九龙男科医院","websets":["http://www.hzjl120.com","http://www.nkxsjl.com",null,null,null]},{"geo":{"latitude":30.281032,"longitude":120.20785},"name":"杭州广仁医院","websets":["http://www.hzgryy.com","http://www.zjbybyw.com",null,null,null]},{"geo":{"latitude":30.270665,"longitude":120.182318},"name":"杭州阿波罗男子医院","websets":["http://www.hzabl.com","http://www.hzabl.cn",null,null,null]},{"geo":{"latitude":30.309398,"longitude":120.121624},"name":"杭州和睦医院","websets":["http://www.hm120.cn",null,null,null,null]},{"name":"杭州真爱医院"},{"geo":{"latitude":30.275576,"longitude":120.134567},"name":"杭州同济医院","websets":["http://www.0571tongji.com","http://www.hztjh.com",null,null,null]},{"address":"杭州市西湖区莫干山路333号","geo":{"latitude":30.281608,"longitude":120.149225},"name":"杭州美莱医疗美容医院","phones":["400-0085-188",null,null,null,null],"websets":["http://www.hzmylike.com/",null,null,null,null]}]},{"cityName":"湖州","hospitalInfos":[{"geo":{"latitude":30.879012,"longitude":120.100842},"name":"湖州阳光女子医院","websets":["http://www.snvzi.com","http://www.hznvzi.com",null,null,null]}]},{"cityName":"泉州","hospitalInfos":[{"geo":{"latitude":24.904611,"longitude":118.581491},"name":"泉州华美美莱整形美容医院","phones":["0595-28266666",null,null,null,null],"websets":["http://www.qzmylike.com","http://www.qzhmzx.com",null,null,null]},{"geo":{"latitude":24.865224,"longitude":118.575973},"name":"泉州南亚华侨医院"},{"geo":{"latitude":24.884095,"longitude":118.598017},"name":"泉州新阳光女子医院","phones":["0595-28966788",null,null,null,null],"websets":["http://www.0595fk.com","http://www.xyg120.net","http://www.xygfkyy.com","http://www.xygfkyy.net","http://www.qzsznyy.net"]},{"geo":{"latitude":24.90839,"longitude":118.608848},"name":"泉州坤如玛丽医院","websets":["http://www.0595ml.com",null,null,null,null]},{"geo":{"latitude":24.908605,"longitude":118.609016},"name":"泉州南亚医院"},{"name":"泉州南亚医院黑龙江和平医院"}]},{"cityName":"金华","hospitalInfos":[{"geo":{"latitude":29.112368,"longitude":119.678046},"name":"浙江金华博康生殖医院"}]},{"cityName":"丽水","hospitalInfos":[{"address":"浙江省丽水市莲都区解放街88号","geo":{"latitude":28.445922,"longitude":119.915122},"name":"丽水九龙男科医院","phones":["0578-2119011",null,null,null,null],"websets":["http://www.lsjlyy.com","http://www.2119011.com","http://www1.2119011.com","www.lsjlnkyy.com","m.lsjlnkyy.com "]}]},{"cityName":"嘉兴","hospitalInfos":[{"geo":{"latitude":30.764809,"longitude":120.694764},"name":"浙江新安国际医院","websets":["http://www.sian.cc",null,null,null,null]},{"geo":{"latitude":30.737882,"longitude":120.771925},"name":"嘉兴曙光中西医结合医院","websets":["http://www.jxjk.cn",null,null,null,null]},{"geo":{"latitude":30.759895,"longitude":120.733809},"name":"嘉兴博爱医院","websets":["http://www.82056999.com",null,null,null,null]}]},{"cityName":"台州","hospitalInfos":[{"geo":{"latitude":28.500381,"longitude":121.366439},"name":"温岭和平医院"}]},{"cityName":"温州","hospitalInfos":[{"name":"瑞安华东医院"},{"geo":{"latitude":27.788595,"longitude":120.58488},"name":"温州长征医院","websets":["http://www.120cz.com",null,null,null,null]},{"geo":{"latitude":28.035187,"longitude":120.861384},"name":"温州协和医院"},{"geo":{"latitude":27.982036,"longitude":120.665612},"name":"温州建国医院","websets":["http://www.wzjg120.com","http://www.wzcwk120.com",null,null,null]},{"geo":{"latitude":27.789282,"longitude":120.628487},"name":"温州红旗医院"},{"geo":{"latitude":27.989008,"longitude":120.728257},"name":"温州爱尔五官科医院"}]},{"cityName":"龙岩","hospitalInfos":[{"geo":{"latitude":25.068975,"longitude":117.02768},"name":"龙岩女子医院"},{"geo":{"latitude":25.086636,"longitude":117.026743},"name":"龙岩阳光医院"}]},{"cityName":"济南","hospitalInfos":[{"name":"山东东方男科医院"},{"geo":{"latitude":36.66696,"longitude":117.064395},"name":"山东紫荆花医院"},{"name":"山东红十字会医院"},{"geo":{"latitude":36.650401,"longitude":116.913388},"name":"济南一零六医院"},{"geo":{"latitude":36.656937,"longitude":116.939478},"name":"济南中医不孕不育医院"},{"geo":{"latitude":36.684234,"longitude":117.008329},"name":"济南中医白癜风医院"},{"geo":{"latitude":36.67246,"longitude":117.064815},"name":"济南中医精神病医院"},{"geo":{"latitude":36.683619,"longitude":116.967908},"name":"济南中医肝病医院"},{"geo":{"latitude":36.674801,"longitude":117.086576},"name":"济南中医静脉曲张医院"},{"geo":{"latitude":36.676838,"longitude":117.014391},"name":"济南中医风湿病医院"},{"geo":{"latitude":36.662132,"longitude":117.065183},"name":"济南中山肝病医院"},{"geo":{"latitude":36.678137,"longitude":116.956786},"name":"济南中德骨科医院"},{"geo":{"latitude":36.657076,"longitude":116.932549},"name":"济南中研皮肤病医院"},{"geo":{"latitude":36.686227,"longitude":117.032489},"name":"济南九龙泌尿专科医院"},{"geo":{"latitude":36.672849,"longitude":117.01328},"name":"济南乳腺医院"},{"geo":{"latitude":36.672849,"longitude":117.01328},"name":"济南乳腺病医院"},{"geo":{"latitude":36.690328,"longitude":116.97669},"name":"济南五洲医院"},{"geo":{"latitude":36.676994,"longitude":117.072903},"name":"济南六一天使儿童医院"},{"geo":{"latitude":36.683782,"longitude":116.999617},"name":"济南华夏医院"},{"geo":{"latitude":36.691879,"longitude":116.994648},"name":"济南协和肝病医院"},{"geo":{"latitude":36.672448,"longitude":117.035765},"name":"济南和谐妇科医院"},{"geo":{"latitude":36.598531,"longitude":117.002619},"name":"济南哮喘病医院"},{"geo":{"latitude":36.597824,"longitude":117.012627},"name":"济南圣玛利亚妇产医院"},{"name":"济南坤如玛丽医院"},{"geo":{"latitude":36.700994,"longitude":117.088794},"name":"济南复元康复医院"},{"geo":{"latitude":36.648964,"longitude":116.992233},"name":"济南妇科医院"},{"geo":{"latitude":36.661098,"longitude":117.027752},"name":"济南整形美容医院"},{"geo":{"latitude":36.666703,"longitude":117.070782},"name":"济南泉城医院"},{"geo":{"latitude":36.68304,"longitude":117.073804},"name":"济南海峡美容整形医院"},{"geo":{"latitude":36.64808,"longitude":117.046101},"name":"济南现代皮肤病医院"},{"geo":{"latitude":36.67403,"longitude":116.973501},"name":"济南白癜风医院"},{"geo":{"latitude":36.657354,"longitude":116.997554},"name":"济南真爱妇科医院"},{"geo":{"latitude":36.697636,"longitude":117.15348},"name":"济南神康医院"},{"geo":{"latitude":36.654669,"longitude":117.048889},"name":"济南美莱整形医院"},{"geo":{"latitude":36.618145,"longitude":117.00501},"name":"济南耳鼻喉医院"},{"geo":{"latitude":36.622952,"longitude":117.000582},"name":"济南肛肠医院"},{"geo":{"latitude":36.644253,"longitude":116.934044},"name":"济南股骨头医院"},{"geo":{"latitude":36.694273,"longitude":116.946246},"name":"济南肾病医院"},{"geo":{"latitude":36.685768,"longitude":117.033561},"name":"济南胃肠病医院"},{"geo":{"latitude":36.700847,"longitude":117.088533},"name":"济南血液病医院"},{"geo":{"latitude":36.711763,"longitude":117.083166},"name":"济南银屑病医院"},{"geo":{"latitude":36.659355,"longitude":117.016941},"name":"济南阳光女子医院"},{"geo":{"latitude":36.66093,"longitude":117.0347},"name":"济南集美美容整形医院"},{"geo":{"latitude":36.643467,"longitude":116.997603},"name":"济南青华不孕不育医院"},{"geo":{"latitude":36.635708,"longitude":116.997817},"name":"济南骨科医院"},{"geo":{"latitude":35.289576,"longitude":113.875416},"name":"解放军第三七一中心医院"}]},{"cityName":"潍坊","hospitalInfos":[{"geo":{"latitude":35.989838,"longitude":119.41944},"name":"潍坊博爱医院"},{"geo":{"latitude":36.712341,"longitude":119.121897},"name":"潍坊长安医院"},{"geo":{"latitude":36.713086,"longitude":119.152458},"name":"潍坊和平医院"}]},{"cityName":"青岛","hospitalInfos":[{"geo":{"latitude":36.064885,"longitude":120.319096},"name":"青岛妇婴医院"},{"geo":{"latitude":36.087319,"longitude":120.376205},"name":"青岛玛丽妇产医院"},{"geo":{"latitude":36.090322,"longitude":120.346631},"name":"青岛长征院"},{"geo":{"latitude":36.083585,"longitude":120.410743},"name":"青岛曙光男科医院"},{"geo":{"latitude":36.083585,"longitude":120.410743},"name":"山东青岛曙光医院"},{"geo":{"latitude":35.96724,"longitude":120.16649},"name":"青岛集美整形美容医院"},{"geo":{"latitude":36.154414,"longitude":120.417138},"name":"青岛新阳光医院"},{"geo":{"latitude":36.111113,"longitude":120.378865},"name":"青岛安宁医院"}]},{"cityName":"德州","hospitalInfos":[{"geo":{"latitude":36.788784,"longitude":116.755925},"name":"齐河阳光医院"}]},{"cityName":"威海","hospitalInfos":[{"geo":{"latitude":37.467044,"longitude":122.13874},"name":"威海现代女子医院"}]},{"cityName":"聊城","hospitalInfos":[{"geo":{"latitude":36.469554,"longitude":115.97792},"name":"聊城东昌府三医院"}]},{"cityName":"淄博","hospitalInfos":[{"geo":{"latitude":36.815102,"longitude":118.061389},"name":"山东淄博金盾医院"},{"geo":{"latitude":36.820847,"longitude":118.0466},"name":"淄博女子医院"}]},{"cityName":"哈尔滨","hospitalInfos":[{"geo":{"latitude":45.74468,"longitude":126.666309},"name":"黑龙江玛丽亚妇产医院"},{"geo":{"latitude":45.745307,"longitude":126.652089},"name":"黑龙江东北医院"},{"name":"黑龙江和平医院"},{"geo":{"latitude":45.743272,"longitude":126.671955},"name":"黑龙江和美妇产医院"},{"geo":{"latitude":45.752817,"longitude":126.600759},"name":"哈尔滨市生殖保健中心院"},{"geo":{"latitude":45.777845,"longitude":126.671526},"name":"哈尔滨欧亚男科医院"},{"geo":{"latitude":45.737284,"longitude":126.622789},"name":"黑龙江长庚耳鼻喉医院"},{"geo":{"latitude":45.747985,"longitude":126.655457},"name":"黑龙江阳光女子医院"},{"geo":{"latitude":45.744353,"longitude":126.660569},"name":"黑龙江省武警黄金医院妇科"}]},{"cityName":"长春","hospitalInfos":[{"geo":{"latitude":43.894454,"longitude":125.312512},"name":"长春同济医院"},{"geo":{"latitude":43.936696,"longitude":125.29649},"name":"吉林总队医院"},{"geo":{"latitude":43.889439,"longitude":125.337319},"name":"长春长庚耳鼻喉医院"},{"geo":{"latitude":43.886655,"longitude":125.339892},"name":"长春阳光女子医院"},{"geo":{"latitude":43.861801,"longitude":125.30443},"name":"长春阳光口腔医院"},{"geo":{"latitude":43.894295,"longitude":125.302087},"name":"吉林创作医院"}]},{"cityName":"四平","hospitalInfos":[{"geo":{"latitude":43.500921,"longitude":124.819229},"name":"四平阳光医院"}]},{"cityName":"延边","hospitalInfos":[{"geo":{"latitude":42.912823,"longitude":129.517297},"name":"延吉博生现代妇科医院"}]},{"cityName":"沈阳","hospitalInfos":[{"geo":{"latitude":41.840342,"longitude":123.433528},"name":"沈阳北陵医院","phones":["024-82235899",null,null,null,null]},{"geo":{"latitude":41.791337,"longitude":123.413698},"name":"沈阳曙光男科医院"},{"geo":{"latitude":41.86317,"longitude":123.413899},"name":"武警辽宁省总队医院","phones":["024-86526638",null,null,null,null]},{"name":"解放军沈阳463医院希美整形美容"}]},{"cityName":"大连","hospitalInfos":[{"geo":{"latitude":38.911576,"longitude":121.593874},"name":"大连长城妇科医院","phones":["400-0078120",null,null,null,null],"websets":["http://www.39568888.com",null,null,null,null]},{"name":"大连新世纪医院","phones":["0411-86506565",null,null,null,null]},{"geo":{"latitude":38.906928,"longitude":121.601663},"name":"大连阳光医院","phones":["0411-84302222",null,null,null,null]}]},{"cityName":"无锡","hospitalInfos":[{"geo":{"latitude":31.578161,"longitude":120.295141},"name":"无锡玛丽亚医院"},{"geo":{"latitude":31.552289,"longitude":120.263551},"name":"无锡嘉仕恒信医院"},{"geo":{"latitude":31.562426,"longitude":120.322486},"name":"无锡南站医院"},{"geo":{"latitude":31.560735,"longitude":120.343744},"name":"无锡虹桥医院"},{"geo":{"latitude":31.897064,"longitude":120.286189},"name":"江阴东方女子医院"},{"geo":{"latitude":31.35774,"longitude":119.797871},"name":"宜兴武警医院"},{"name":"江阴九龙泌尿外科医院"},{"geo":{"latitude":31.550531,"longitude":120.352629},"name":"无锡新区医院"},{"geo":{"latitude":31.897649,"longitude":120.277902},"name":"江阴红房子医院"},{"geo":{"latitude":31.912011,"longitude":120.281839},"name":"江阴朝阳男科医院"}]},{"cityName":"南京","hospitalInfos":[{"geo":{"latitude":32.029289,"longitude":118.791145},"name":"江苏施尔美整形美容医院"},{"geo":{"latitude":32.006486,"longitude":118.782878},"name":"南京曙光医院"},{"geo":{"latitude":31.957798,"longitude":118.863047},"name":"南京江宁博爱医院"},{"geo":{"latitude":31.984179,"longitude":118.887079},"name":"南京市江宁区众彩门诊部"},{"geo":{"latitude":31.938616,"longitude":118.872309},"name":"南京世纪现代妇产医院"},{"geo":{"latitude":32.01387,"longitude":118.796334},"name":"南京建国男科医院"},{"name":"南京康豪妇科"},{"geo":{"latitude":32.07018,"longitude":118.770141},"name":"南京阳光肿瘤医院"},{"geo":{"latitude":32.033977,"longitude":118.831677},"name":"南京港龙医院"},{"name":"454医院植发科"},{"geo":{"latitude":32.080338,"longitude":118.745025},"name":"南京医科二附院协作医院"},{"geo":{"latitude":32.673406,"longitude":119.019676},"name":"天长现代妇产医院"},{"geo":{"latitude":32.042697,"longitude":118.773824},"name":"南京医科大学附属友谊整形外科医院"},{"geo":{"latitude":32.034824,"longitude":118.794506},"name":"南京解放军81医院"},{"geo":{"latitude":32.029895,"longitude":118.798557},"name":"南京454医院妇产科"},{"geo":{"latitude":32.050267,"longitude":118.768497},"name":"南京蓝十字脑科医院"},{"geo":{"latitude":32.102194,"longitude":118.808524},"name":"南京迈皋桥医院"},{"geo":{"latitude":32.019043,"longitude":118.820595},"name":"南京东院门诊部"},{"geo":{"latitude":32.046478,"longitude":118.805234},"name":"南京华美整形美容医院"},{"geo":{"latitude":32.053808,"longitude":118.803592},"name":"南京空军机关医院神经科"},{"geo":{"latitude":32.050813,"longitude":118.807786},"name":"南京军区机关医院妇科"},{"geo":{"latitude":32.087111,"longitude":118.768445},"name":"南京长江医院"},{"geo":{"latitude":32.1525,"longitude":118.713599},"name":"南京长海医院"},{"name":"南京美迪亚医院"},{"geo":{"latitude":31.949966,"longitude":118.85106},"name":"南京亚韩整形美容医院"},{"geo":{"latitude":32.015132,"longitude":118.782233},"name":"南京仁品耳鼻喉专科医院"},{"geo":{"latitude":32.047726,"longitude":118.806023},"name":"南京邦德骨科医院"},{"geo":{"latitude":32.016028,"longitude":118.748369},"name":"南京肛泰中医医院"},{"geo":{"latitude":32.030959,"longitude":118.769284},"name":"南京维多利亚国际整形美容医院"},{"geo":{"latitude":32.029136,"longitude":118.759183},"name":"南京华世佳宝妇产医院"},{"geo":{"latitude":31.990089,"longitude":118.796371},"name":"南京中天皮肤病医院"},{"geo":{"latitude":32.03211,"longitude":118.814062},"name":"南京恒大中医院"},{"geo":{"latitude":32.019456,"longitude":118.833242},"name":"南京新协和医院"},{"geo":{"latitude":32.081944,"longitude":118.756776},"name":"南京天伦医院"},{"geo":{"latitude":32.004214,"longitude":118.780599},"name":"南京玛丽妇产医院"},{"geo":{"latitude":32.099032,"longitude":118.811049},"name":"南京华西妇科医院"},{"geo":{"latitude":31.915711,"longitude":118.827028},"name":"南京新城医院"},{"geo":{"latitude":32.01387,"longitude":118.796334},"name":"南京建国医院"},{"geo":{"latitude":32.004428,"longitude":118.782237},"name":"南京雨花男科医院"},{"geo":{"latitude":32.092764,"longitude":118.76769},"name":"南京科大医院"},{"geo":{"latitude":32.111731,"longitude":118.813562},"name":"南京和燕医院"},{"name":"半山医院妇科"},{"geo":{"latitude":31.329128,"longitude":118.872817},"name":"南京高淳博爱医院"},{"geo":{"latitude":31.673391,"longitude":119.018435},"name":"溧水瑞丽妇产医院"},{"geo":{"latitude":32.046164,"longitude":118.783496},"name":"南京华夏妇科"},{"geo":{"latitude":32.064229,"longitude":118.780064},"name":"南京仁济妇科"},{"name":"南京广济医院"},{"geo":{"latitude":31.942111,"longitude":118.821162},"name":"南京江宁友爱医院"},{"geo":{"latitude":32.077743,"longitude":118.771568},"name":"南京连天美美容医院"},{"geo":{"latitude":32.02932,"longitude":118.786047},"name":"南京韩辰整形"},{"geo":{"latitude":32.032541,"longitude":118.786329},"name":"南京康美美容医疗医院"},{"geo":{"latitude":32.03794,"longitude":118.751114},"name":"南京奇致医疗美容医院"},{"geo":{"latitude":32.087371,"longitude":118.758337},"name":"南京华肤医院"},{"geo":{"latitude":32.093187,"longitude":118.809049},"name":"南京华夏白癜风医院"},{"geo":{"latitude":32.091206,"longitude":118.775711},"name":"南京现代长城医院"},{"geo":{"latitude":32.023831,"longitude":118.79356},"name":"南京保肤堂皮肤病研究所"},{"geo":{"latitude":32.093187,"longitude":118.809049},"name":"南京延龄白癜风医院"},{"geo":{"latitude":32.077743,"longitude":118.771755},"name":"南京康贝佳口腔医院"},{"geo":{"latitude":32.024107,"longitude":118.775509},"name":"南京金伯利口腔"},{"geo":{"latitude":32.05093,"longitude":118.807799},"name":"南京数字口腔医院"},{"name":"南京雅度齿科"},{"name":"南京曙光肛肠专业医院"},{"geo":{"latitude":32.015296,"longitude":118.781852},"name":"南京仁品耳鼻喉科医院"},{"geo":{"latitude":32.015086,"longitude":118.747725},"name":"南京正大耳鼻喉科医院"},{"geo":{"latitude":32.087158,"longitude":118.768498},"name":"南京鼓楼新生门诊"},{"geo":{"latitude":32.024933,"longitude":118.809366},"name":"南京华都医学研究院"},{"geo":{"latitude":31.65137,"longitude":119.026813},"name":"溧水中山医院"},{"name":"尔康强制性脊柱炎研究所"},{"geo":{"latitude":32.017336,"longitude":118.7989},"name":"南京龙蟠结石医院"},{"geo":{"latitude":32.030923,"longitude":118.764639},"name":"南京远大医学研究所"},{"geo":{"latitude":32.091659,"longitude":118.754548},"name":"南京万厚肝病医院"},{"geo":{"latitude":32.213234,"longitude":119.163553},"name":"南京和平"}]},{"cityName":"泰州","hospitalInfos":[{"geo":{"latitude":32.506462,"longitude":120.156364},"name":"江苏泰州红房子医院"},{"geo":{"latitude":32.467453,"longitude":119.919074},"name":"泰州市海陵医院"},{"geo":{"latitude":32.493715,"longitude":119.900933},"name":"泰州海陵女子医院"},{"name":"泰兴协和医院"},{"address":"靖江市江平路360号（交警大队旁）","geo":{"latitude":32.022562,"longitude":120.255297},"name":"靖江丽人医院","phones":["0523-84988820",null,null,null,null],"websets":["http://www.tzlryy.net","http://www.tzlryy.com",null,null,null]},{"address":"靖江市西环南路119号(市二院向南50米)","geo":{"latitude":32.021398,"longitude":120.253167},"name":"靖江微创医院","phones":["0523-84505233",null,null,null,null],"websets":["http://www.tzwcnk.net","http://www.tzwcnk.com",null,null,null]}]},{"cityName":"盐城","hospitalInfos":[{"geo":{"latitude":33.385715,"longitude":120.151351},"name":"盐城协和康复医院"}]},{"cityName":"宿迁","hospitalInfos":[{"geo":{"latitude":33.954415,"longitude":118.27101},"name":"宿迁市妇产医院"},{"name":"泗洪阳光儿童医院"}]},{"cityName":"淮安","hospitalInfos":[{"geo":{"latitude":33.602121,"longitude":119.043152},"name":"江苏淮安中山医院"},{"geo":{"latitude":33.613725,"longitude":119.008748},"name":"淮安生殖医院"}]},{"cityName":"南通","hospitalInfos":[{"geo":{"latitude":32.537628,"longitude":120.470353},"name":"江苏海安华山医院"},{"geo":{"latitude":31.963755,"longitude":120.89481},"name":"南通和美家妇产科医院"},{"geo":{"latitude":32.014737,"longitude":120.833926},"name":"南通长城医院"}]},{"cityName":"启东","hospitalInfos":[{"address":"江苏省启东市紫薇中路458号","geo":{"latitude":31.81702,"longitude":121.668892},"name":"启东市中医院","phones":["0513-83212540",null,null,null,null],"websets":["http://www.qdszyy.com/",null,null,null,null]}]},{"cityName":"徐州","hospitalInfos":[{"geo":{"latitude":34.255028,"longitude":117.205623},"name":"徐州新华医院"},{"geo":{"latitude":34.24727,"longitude":117.205867},"name":"徐州复兴眼科医院"},{"geo":{"latitude":34.272582,"longitude":117.203873},"name":"徐州国康中医院"},{"geo":{"latitude":34.267649,"longitude":117.198494},"name":"徐州九龙妇产医院"},{"geo":{"latitude":34.361748,"longitude":118.341619},"name":"新沂市博爱医院"},{"geo":{"latitude":34.282277,"longitude":117.213169},"name":"徐州瑞博医院"},{"geo":{"latitude":34.219199,"longitude":117.193767},"name":"徐州百汇医院"},{"geo":{"latitude":34.262705,"longitude":117.224696},"name":"徐州京城皮肤病医院"}]},{"cityName":"武汉","hospitalInfos":[{"geo":{"latitude":32.040432,"longitude":112.15775},"name":"武汉送子鸟不孕不育医院","phones":["027-83771313",null,null,null,null],"websets":["http://www.szn027.com",null,null,null,null]},{"geo":{"latitude":30.61888,"longitude":114.299718},"name":"武汉黄浦中西医结合医院","phones":["400-9961009",null,null,null,null],"websets":["http://www.ctbyw.com",null,null,null,null]},{"geo":{"latitude":30.569391,"longitude":114.261489},"name":"武汉现代妇产医院","phones":["027-68836686","027-87563555",null,null,null]},{"name":"武汉阳光女子医院"},{"geo":{"latitude":30.51317,"longitude":114.323963},"name":"广州军区武汉总医院南湖妇产中心"},{"geo":{"latitude":30.62487,"longitude":114.304799},"name":"武汉百佳医院","phones":["027-66666333",null,null,null,null],"websets":["http://www.whbjyy.com",null,null,null,null]},{"geo":{"latitude":30.554954,"longitude":114.304302},"name":"武汉玛利亚妇产科医院","phones":["027-88858965",null,null,null,null],"websets":["http://www.mlyfc.net",null,null,null,null]},{"geo":{"latitude":30.5968,"longitude":114.26404},"name":"武汉都市妇产医院","phones":["027-85268003",null,null,null,null],"websets":["http://www.whdsfk.com",null,null,null,null]},{"geo":{"latitude":30.505283,"longitude":114.37454},"name":"武汉真爱妇产医院","phones":["027-87189999",null,null,null,null],"websets":["http://www.87189999.com",null,null,null,null]},{"geo":{"latitude":30.542267,"longitude":114.26672},"name":"武汉友好医院"},{"geo":{"latitude":30.617762,"longitude":114.266697},"name":"武汉阿波罗男科医院","phones":["027-85888669",null,null,null,null],"websets":["http://www.whablnk.com",null,null,null,null]},{"geo":{"latitude":30.519216,"longitude":114.32578},"name":"武汉曙光中西医结合医院","phones":["027-88129788",null,null,null,null]},{"geo":{"latitude":30.585925,"longitude":114.25446},"name":"武汉博大男科医院","phones":["027-85896666",null,null,null,null],"websets":["http://www.whnanke.net",null,null,null,null]},{"geo":{"latitude":30.618995,"longitude":114.314246},"name":"武汉现代泌尿外科医院","phones":["027-82886888",null,null,null,null],"websets":["http://www.xdmnyy.com",null,null,null,null]},{"geo":{"latitude":30.540011,"longitude":114.317507},"name":"武汉名仕泌尿外科医院","phones":["027-88328080",null,null,null,null],"websets":["http://www.whmsnk.com",null,null,null,null]},{"geo":{"latitude":30.531849,"longitude":114.334046},"name":"武汉华夏医院","phones":["027-87275566",null,null,null,null],"websets":["http://www.whhxyy.com",null,null,null,null]},{"geo":{"latitude":30.505839,"longitude":114.377916},"name":"湖北省荣军医院","phones":["027-62084891",null,null,null,null],"websets":["http://www.hbsrjyy.com",null,null,null,null]},{"geo":{"latitude":30.575193,"longitude":114.243836},"name":"武汉仁爱医院","phones":["027-83798531",null,null,null,null],"websets":["http://www.whrenai.com",null,null,null,null]},{"geo":{"latitude":30.605917,"longitude":114.350788},"name":"武汉中原医院","phones":["027-85733999",null,null,null,null],"websets":["http://www.whzyyy.com",null,null,null,null]},{"geo":{"latitude":30.589586,"longitude":114.346417},"name":"武汉博爱医院","phones":["027-86722223",null,null,null,null],"websets":["http://www.boaifk.com",null,null,null,null]},{"geo":{"latitude":30.528025,"longitude":114.3473},"name":"武汉华仁医院","phones":["027-87875387",null,null,null,null]},{"geo":{"latitude":30.582934,"longitude":114.265292},"name":"武汉东南医院","phones":["027-83659999",null,null,null,null]},{"name":"武汉同济来福康医院","phones":["027-83884040",null,null,null,null]},{"geo":{"latitude":30.514494,"longitude":114.368891},"name":"武汉虎泉医院","phones":["027-88089120",null,null,null,null],"websets":["http://www.hqsmk.com",null,null,null,null]},{"geo":{"latitude":30.578649,"longitude":114.256506},"name":"武汉华美整形医院","phones":["400-0070606",null,null,null,null],"websets":["http://www.zswzx.com",null,null,null,null]},{"geo":{"latitude":30.584303,"longitude":114.352102},"name":"武汉五洲美莱整形美容医院","phones":["027-86785799",null,null,null,null],"websets":["http://www.88077777.com",null,null,null,null]},{"geo":{"latitude":30.592385,"longitude":114.273622},"name":"武汉韩辰整形医院","phones":["400-0303027",null,null,null,null],"websets":["http://www.4000303027.com",null,null,null,null]},{"geo":{"latitude":30.562678,"longitude":114.309301},"name":"武汉艺星医疗美容医院","phones":["400-0601992",null,null,null,null],"websets":["http://www.whyestar.com",null,null,null,null]},{"geo":{"latitude":30.552972,"longitude":114.316126},"name":"武汉博仕肛肠肛肠医院","phones":["027-88855999",null,null,null,null],"websets":["http://www.39bsw.com",null,null,null,null]},{"geo":{"latitude":30.507214,"longitude":114.368244},"name":"武汉仁安眼耳鼻喉医院","phones":["400-6027669",null,null,null,null],"websets":["http://www.whrenan.com",null,null,null,null]},{"geo":{"latitude":30.593574,"longitude":114.346325},"name":"武汉京都结石病医院","phones":["027-88616718",null,null,null,null],"websets":["http://www.hbjieshi.com",null,null,null,null]},{"geo":{"latitude":30.598236,"longitude":114.290398},"name":"武汉太医堂中医院"},{"geo":{"latitude":30.576716,"longitude":114.232285},"name":"武汉国医堂","phones":["027-87639188",null,null,null,null],"websets":["http://www.gytsm.com",null,null,null,null]},{"geo":{"latitude":30.503796,"longitude":114.383387},"name":"武汉明德肛肠医院","phones":["027-87585666",null,null,null,null],"websets":["http://www.whmdgc.com",null,null,null,null]},{"geo":{"latitude":30.531202,"longitude":114.344755},"name":"广州军区武汉总医院"},{"geo":{"latitude":30.603282,"longitude":114.305892},"name":"武汉八医院"},{"name":"解放军161"},{"geo":{"latitude":30.620564,"longitude":114.30478},"name":"空军457"},{"geo":{"latitude":30.569103,"longitude":114.254153},"name":"硚口中山医院"},{"geo":{"latitude":30.524667,"longitude":114.326515},"name":"武汉科技大学附属天佑医院"},{"geo":{"latitude":30.582083,"longitude":114.378483},"name":"梨园医院"},{"geo":{"latitude":30.544436,"longitude":114.313767},"name":"湖北省武警总医院"},{"name":"武汉解放军193医院"}]},{"cityName":"荆州","hospitalInfos":[{"geo":{"latitude":30.345266,"longitude":112.220748},"name":"荆州华康医院"}]},{"cityName":"黄冈","hospitalInfos":[{"geo":{"latitude":30.443519,"longitude":114.871269},"name":"黄冈泌尿专科医院"}]},{"cityName":"黄石","hospitalInfos":[{"geo":{"latitude":30.209629,"longitude":115.100472},"name":"湖北黄石福康医院"}]},{"cityName":"襄阳","hospitalInfos":[{"geo":{"latitude":32.041766,"longitude":112.161403},"name":"襄阳市第五人民医院"},{"geo":{"latitude":32.06035,"longitude":112.134814},"name":"襄阳东大肛肠医院"},{"geo":{"latitude":32.033611,"longitude":112.137291},"name":"襄阳东方妇科女子医院"},{"geo":{"latitude":32.022094,"longitude":112.162956},"name":"襄阳仁爱女子医院"}]},{"cityName":"乌海","hospitalInfos":[{"geo":{"latitude":39.672001,"longitude":106.824903},"name":"乌海现代医院"}]},{"cityName":"呼和浩特","hospitalInfos":[{"geo":{"latitude":40.842842,"longitude":111.652153},"name":"内蒙古天骄医院"},{"geo":{"latitude":40.800771,"longitude":111.666323},"name":"呼和浩特五洲女子医院"}]},{"cityName":"贵阳","hospitalInfos":[{"geo":{"latitude":26.564304,"longitude":106.713203},"name":"贵州退休医师医院"},{"geo":{"latitude":26.564978,"longitude":106.713961},"name":"贵阳五官中心"},{"geo":{"latitude":26.582736,"longitude":106.711585},"name":"贵阳长江医院"},{"geo":{"latitude":26.58143,"longitude":106.667719},"name":"贵阳和谐阳光医院"},{"name":"贵阳马王庙医院"},{"geo":{"latitude":26.582901,"longitude":106.704687},"name":"贵阳现代女子医院"},{"geo":{"latitude":26.530663,"longitude":106.693067},"name":"贵阳和美妇产医院"},{"geo":{"latitude":26.615756,"longitude":106.732895},"name":"贵州省第二人民医院耳鼻喉科","phones":["400-0851962",null,null,null,null],"websets":["http://www.o-wei.com","http://www.ygzhu8.com",null,null,null]},{"geo":{"latitude":26.526396,"longitude":106.679945},"name":"贵阳结石病医院","phones":["0851-88546001","0851-88546002",null,null,null],"websets":["http://www.qlxzhuanke.com","http://www.gyjsbyy.com",null,null,null]}]},{"cityName":"铜仁","hospitalInfos":[{"geo":{"latitude":27.738105,"longitude":109.194694},"name":"铜仁华夏医院"}]},{"cityName":"安顺","hospitalInfos":[{"geo":{"latitude":26.251087,"longitude":105.924865},"name":"安顺阳光妇科医院"}]},{"cityName":"毕节","hospitalInfos":[{"geo":{"latitude":27.301868,"longitude":105.286964},"name":"毕节现代医院"}]},{"cityName":"长沙","hospitalInfos":[{"geo":{"latitude":28.230824,"longitude":113.080099},"name":"长沙华夏医院"},{"name":"长沙湘江医院七大医院"},{"geo":{"latitude":28.183274,"longitude":112.978046},"name":"长沙阳光医院"},{"geo":{"latitude":28.214383,"longitude":112.979512},"name":"长沙仁爱医院"},{"geo":{"latitude":28.136668,"longitude":113.00712},"name":"长沙恒生手外科医院"},{"geo":{"latitude":28.181547,"longitude":112.996813},"name":"长沙博大泌尿专科医院"},{"geo":{"latitude":28.148453,"longitude":112.910925},"name":"长沙南方骨外科医院"},{"geo":{"latitude":28.167773,"longitude":112.99904},"name":"长沙现代女子医院"},{"geo":{"latitude":28.185438,"longitude":113.006202},"name":"长沙丽人妇产医院"},{"geo":{"latitude":28.199439,"longitude":112.949504},"name":"武警湖南省总队医院"},{"geo":{"latitude":28.219027,"longitude":112.954269},"name":"长沙玛丽亚妇产医院"},{"geo":{"latitude":26.414204,"longitude":112.849795},"name":"耒阳云森医院","websets":["http://www.lyys120.com/",null,null,null,null]}]},{"cityName":"郴州","hospitalInfos":[{"geo":{"latitude":25.805166,"longitude":113.027244},"name":"湖南郴州福康医院"}]},{"cityName":"湘潭","hospitalInfos":[{"geo":{"latitude":27.863585,"longitude":112.9123},"name":"湘潭阳光眼科中心"}]},{"cityName":"娄底","hospitalInfos":[{"geo":{"latitude":27.751287,"longitude":112.000023},"name":"娄底阳光医院"}]},{"cityName":"南昌","hospitalInfos":[{"address":"江西省南昌市青云谱区井冈山大道239号(家乐福超市对面)","geo":{"latitude":28.63186,"longitude":115.915934},"name":"南昌市第五医院","phones":["400-1606199","0791-86658901",null,null,null],"websets":["http://www.wy120.com",null,null,null,null]},{"address":"江西省南昌市洪城路636号(洪城大市场正门往西300米路南)","geo":{"latitude":28.654542,"longitude":115.883031},"name":"南昌仁爱女子医院","phones":["0791-85207758","0791-86573333",null,null,null],"websets":["http://www.nz91.com",null,null,null,null]},{"address":"江西省南昌市解放西路99号","geo":{"latitude":28.654356,"longitude":115.923431},"name":"南昌曙光手足外科医院","phones":["0791-88230000",null,null,null,null],"websets":["http://www.hand120.com",null,null,null,null]},{"address":"江西省南昌市青云谱区洪都南大道273号","geo":{"latitude":28.646649,"longitude":115.922172},"name":"南昌佳美美容医院","phones":["400-6796066",null,null,null,null],"websets":["http://www.nccharm.com.cn",null,null,null,null]},{"address":"江西省南昌市迎宾北大道285号","geo":{"latitude":28.629109,"longitude":115.907703},"name":"南昌华山不孕不育医院","phones":["400-6013130","0791-86658913","18507005120",null,null],"websets":["http://www.hsbyby.cn","http://www.nch3yy.com",null,null,null]},{"address":"江西省南昌市东湖区胜利路355号(近八一桥)","geo":{"latitude":28.686216,"longitude":115.886684},"name":"南昌博爱泌尿专科医院","phones":["0791-86658922","0791-87958517",null,null,null],"websets":["http://www.btsdhjsj.com","http://www.ncboai.cn","http://www.ncboai.net","http://www.ot8.cn","http://www.xngxw.com"]},{"address":"江西省南昌市胜利路298号(八一桥旁)","geo":{"latitude":28.68615,"longitude":115.886411},"name":"南昌东大肛肠专科医院","phones":["0791-86822072",null,null,null,null],"websets":["http://www.0791gc.com",null,null,null,null]},{"address":"江西省南昌市青云谱区洪都南大道237号","geo":{"latitude":28.641913,"longitude":115.918533},"name":"南昌博大耳鼻咽喉专科医院","phones":["0791-86658908",null,null,null,null],"websets":["http://www.ncebh.com",null,null,null,null]}]},{"cityName":"九江","hospitalInfos":[{"name":"九江玛丽亚医院"},{"geo":{"latitude":29.722784,"longitude":115.981002},"name":"九江新世纪医院"},{"name":"九江阳光女子医院"}]},{"cityName":"吉安","hospitalInfos":[{"geo":{"latitude":27.097131,"longitude":114.983703},"name":"江西吉安市第二人民医院"}]},{"cityName":"萍乡","hospitalInfos":[{"geo":{"latitude":27.63232,"longitude":113.861117},"name":"萍乡市新世纪泌尿专科医院"},{"geo":{"latitude":27.647855,"longitude":113.851585},"name":"萍乡妇科医院"}]},{"cityName":"赣州","hospitalInfos":[{"geo":{"latitude":25.821414,"longitude":114.962698},"name":"赣州现代泌尿专科医院"}]},{"cityName":"上饶","hospitalInfos":[{"geo":{"latitude":28.460165,"longitude":117.968526},"name":"上饶东大肛肠专科医院"},{"geo":{"latitude":28.441364,"longitude":117.97654},"name":"上饶协和医院"}]},{"cityName":"太原","hospitalInfos":[{"geo":{"latitude":37.839645,"longitude":112.579879},"name":"山西现代妇产医院"},{"geo":{"latitude":37.837867,"longitude":112.545127},"name":"山西民生医院"},{"geo":{"latitude":37.804544,"longitude":112.578265},"name":"武警山西总队医院"},{"geo":{"latitude":37.822486,"longitude":112.588866},"name":"山西长庚耳鼻喉医院"},{"geo":{"latitude":37.85189,"longitude":112.583221},"name":"太原糖尿病专科医院"},{"geo":{"latitude":37.831414,"longitude":112.583707},"name":"太原新医医院"},{"geo":{"latitude":37.838863,"longitude":112.582977},"name":"太原益民中医院"},{"geo":{"latitude":37.832958,"longitude":112.574783},"name":"太原白癜风医院"}]},{"cityName":"临汾","hospitalInfos":[{"geo":{"latitude":36.071415,"longitude":111.516369},"name":"临汾现代女子医院"}]},{"cityName":"阳泉","hospitalInfos":[{"name":"山西阳泉东方生殖医院"}]},{"cityName":"长治","hospitalInfos":[{"geo":{"latitude":36.193101,"longitude":113.100457},"name":"长治女子医院"}]},{"cityName":"大同","hospitalInfos":[{"geo":{"latitude":40.110769,"longitude":113.289268},"name":"大同新时代妇科医院"}]},{"cityName":"晋城","hospitalInfos":[{"geo":{"latitude":35.497491,"longitude":112.849749},"name":"晋城现代女子医院"},{"geo":{"latitude":35.494491,"longitude":112.855026},"name":"晋城生殖医院"}]},{"cityName":"晋中","hospitalInfos":[{"geo":{"latitude":37.433015,"longitude":112.581866},"name":"山西新阳光妇科医院"}]},{"cityName":"运城","hospitalInfos":[{"geo":{"latitude":35.035861,"longitude":111.015119},"name":"运城禹都人民医院"}]},{"cityName":"西安","hospitalInfos":[{"geo":{"latitude":34.229767,"longitude":108.906219},"name":"西安俪人医院"},{"geo":{"latitude":34.237041,"longitude":108.985486},"name":"武警陕西总队医院"},{"geo":{"latitude":34.269032,"longitude":108.979938},"name":"西安阳光医院"},{"geo":{"latitude":34.252691,"longitude":108.988458},"name":"西安东大肛肠医院"}]},{"cityName":"商洛","hospitalInfos":[{"geo":{"latitude":33.526572,"longitude":109.892283},"name":"商洛市红十字会医院"},{"geo":{"latitude":33.687817,"longitude":110.327301},"name":"商洛市博爱医院"}]},{"cityName":"包头","hospitalInfos":[{"geo":{"latitude":40.655514,"longitude":109.855748},"name":"包头现代女子妇产医院"}]},{"cityName":"蚌埠","hospitalInfos":[{"geo":{"latitude":39.732453,"longitude":116.346829},"name":"澳美佳女子医院"},{"geo":{"latitude":32.90495,"longitude":117.335001},"name":"蚌埠解放军一二三中心医院"}]},{"cityName":"亳州","hospitalInfos":[{"geo":{"latitude":33.482773,"longitude":116.240384},"name":"涡阳阳光医院"}]},{"cityName":"芜湖","hospitalInfos":[{"geo":{"latitude":31.14383,"longitude":118.611902},"name":"芜湖阳光眼科医院"},{"geo":{"latitude":31.360811,"longitude":118.369642},"name":"芜湖丹凤朝阳妇科医院"}]},{"cityName":"巢湖","hospitalInfos":[{"geo":{"latitude":31.597901,"longitude":117.882702},"name":"巢湖康平妇产医院"},{"geo":{"latitude":31.6127,"longitude":117.887497},"name":"巢湖阳光妇幼医院"}]},{"cityName":"淮北","hospitalInfos":[{"geo":{"latitude":33.966572,"longitude":116.793617},"name":"淮北女子医院"},{"geo":{"latitude":33.919053,"longitude":116.794051},"name":"淮北阳光心理院"},{"name":"淮北九龙男科医院"},{"geo":{"latitude":33.955108,"longitude":116.774486},"name":"淮北和平医院"}]},{"cityName":"合肥","hospitalInfos":[{"geo":{"latitude":31.873562,"longitude":117.314506},"name":"合肥市中山医院"},{"geo":{"latitude":31.866173,"longitude":117.305979},"name":"合肥九龙男科医院"},{"geo":{"latitude":31.883631,"longitude":117.306196},"name":"合肥丹凤朝阳妇科医院"},{"geo":{"latitude":31.85235,"longitude":117.24779},"name":"合肥解放军105医院整形美容中心"},{"geo":{"latitude":31.857637,"longitude":117.30925},"name":"合肥现代妇产医院"},{"geo":{"latitude":31.841251,"longitude":117.227861},"name":"合肥军大医院"},{"geo":{"latitude":31.852399,"longitude":117.227732},"name":"合肥红十字会医院"},{"geo":{"latitude":31.8143,"longitude":117.286672},"name":"合肥阳光消化病医院"},{"geo":{"latitude":31.867575,"longitude":117.280209},"name":"合肥1+1美容医院"},{"geo":{"latitude":31.847164,"longitude":117.27943},"name":"合肥丽人美容医院"},{"address":"安徽省合肥市包河区屯溪路349号","geo":{"latitude":31.847233,"longitude":117.27926},"name":"合肥丽人妇科医院","phones":["0551-63653311",null,null,null,null],"websets":["http://www.lr120.com/","http://3612999.com/",null,null,null]},{"geo":{"latitude":31.887426,"longitude":117.287641},"name":"合肥喜得儿孕育医院"},{"geo":{"latitude":31.88717,"longitude":117.272613},"name":"合肥当代中西药医院"},{"geo":{"latitude":31.840758,"longitude":117.241267},"name":"合肥博大泌尿专科医院"},{"geo":{"latitude":31.869937,"longitude":117.289283},"name":"合肥凤凰肿瘤医院"},{"geo":{"latitude":31.832305,"longitude":117.22786},"name":"安徽维多利亚整形医院"},{"geo":{"latitude":31.879948,"longitude":117.283583},"name":"安徽韩美整形外科医院"},{"geo":{"latitude":31.836868,"longitude":117.285063},"name":"合肥友好医院"},{"geo":{"latitude":31.859454,"longitude":117.288065},"name":"合肥同济医院"},{"geo":{"latitude":31.834549,"longitude":117.273626},"name":"合肥仁爱中医院"},{"geo":{"latitude":31.879173,"longitude":117.275699},"name":"合肥远大男科研究院"},{"geo":{"latitude":31.814324,"longitude":117.287947},"name":"合肥天伦不孕不育医院"},{"geo":{"latitude":31.940961,"longitude":117.271822},"name":"合肥时代医院"},{"name":"合肥北大白癜风医院"},{"geo":{"latitude":31.882266,"longitude":117.291875},"name":"合肥国仁皮肤病医院"},{"geo":{"latitude":31.831985,"longitude":117.293515},"name":"合肥新科白癜风医院"},{"geo":{"latitude":31.832516,"longitude":117.233373},"name":"合肥艺星整形医院"},{"geo":{"latitude":31.860757,"longitude":117.274642},"name":"合肥恒美整形医院"},{"geo":{"latitude":31.84199,"longitude":117.265575},"name":"合肥华美整形医院"},{"geo":{"latitude":31.880611,"longitude":117.300521},"name":"合肥名人眼科医院"},{"address":"合肥包河区徽州大道689号(徽州大道与九华山路交口往南300米)","geo":{"latitude":31.837352,"longitude":117.285087},"name":"合肥新视界眼科医院","phones":["400-6651616",null,null,null,null],"websets":["http://www.hfneweye.com/",null,null,null,null]},{"geo":{"latitude":31.841756,"longitude":117.251957},"name":"合肥普瑞眼科医院"}]},{"cityName":"安阳","hospitalInfos":[{"geo":{"latitude":36.090769,"longitude":114.334916},"name":"安阳协和医院"}]},{"cityName":"郑州","hospitalInfos":[{"geo":{"latitude":34.749412,"longitude":113.740338},"name":"河南中都皮肤病医院"},{"geo":{"latitude":34.76561,"longitude":113.673611},"name":"河南省军区医院"},{"geo":{"latitude":34.749942,"longitude":113.676514},"name":"郑州集美整形美容医院"},{"geo":{"latitude":34.716385,"longitude":113.68465},"name":"郑州华夏白癜风医院"},{"geo":{"latitude":34.739833,"longitude":112.983876},"name":"巩义阳光医院"},{"geo":{"latitude":34.737011,"longitude":113.600141},"name":"郑州华山医院"},{"geo":{"latitude":34.769787,"longitude":113.66955},"name":"郑州丽天整形医院"}]},{"cityName":"新乡","hospitalInfos":[{"geo":{"latitude":35.298482,"longitude":113.901048},"name":"新乡阳光医院"},{"geo":{"latitude":35.302937,"longitude":113.86694},"name":"新乡和平医院"},{"name":"解放军371医院"}]},{"cityName":"许昌","hospitalInfos":[{"geo":{"latitude":34.015118,"longitude":113.819696},"name":"许昌新时代妇科医院"},{"geo":{"latitude":34.022918,"longitude":113.820693},"name":"许昌凤凰医院"},{"address":"许昌市西大街280号","geo":{"latitude":34.028424,"longitude":113.823809},"name":"许昌中山医院","phones":["0374-2158889",null,null,null,null],"websets":["http://www.xczshp.com","http://www.xcyyhp.com","http://www.2158888.com","http://www.xczsnk.com","xczsnk.com"]}]},{"cityName":"廊坊","hospitalInfos":[{"geo":{"latitude":39.540014,"longitude":116.70556},"name":"廊坊万福医院"},{"geo":{"latitude":39.512687,"longitude":116.708804},"name":"廊坊世纪协和医院"}]},{"cityName":"保定","hospitalInfos":[{"geo":{"latitude":38.758778,"longitude":114.992841},"name":"保定京津医院"},{"geo":{"latitude":38.8602,"longitude":115.484515},"name":"保定世纪协和医院"},{"geo":{"latitude":38.552125,"longitude":114.91372},"name":"保定长安医院"},{"geo":{"latitude":38.882481,"longitude":115.457214},"name":"保定现代女子医院"},{"geo":{"latitude":38.847368,"longitude":115.493689},"name":"保定白癜风医院"}]},{"cityName":"唐山","hospitalInfos":[{"geo":{"latitude":39.630018,"longitude":118.150019},"name":"唐山京城皮肤病医院"},{"geo":{"latitude":39.625333,"longitude":118.138406},"name":"唐山女子医院"},{"geo":{"latitude":39.886005,"longitude":117.75125},"name":"唐山红十字医院"}]},{"cityName":"洛阳","hospitalInfos":[{"geo":{"latitude":34.654823,"longitude":112.401039},"name":"洛阳牡丹女子医院"},{"name":"解放军534医院"}]},{"cityName":"信阳","hospitalInfos":[{"name":"信阳泌尿外科医院"},{"geo":{"latitude":32.112422,"longitude":114.086886},"name":"信阳博士医院","phones":["0376-3222555",null,null,null,null],"websets":["http://www.bbrmyy.com",null,null,null,null]}]},{"cityName":"平顶山","hospitalInfos":[{"geo":{"latitude":33.7355,"longitude":113.281932},"name":"平顶山市武警医院"}]},{"cityName":"漯河","hospitalInfos":[{"geo":{"latitude":33.577934,"longitude":114.040652},"name":"漯河东方医院"}]},{"cityName":"石家庄","hospitalInfos":[{"name":"河北东方中西医结合医院"},{"geo":{"latitude":38.034894,"longitude":114.486296},"name":"石家庄美联臣医疗美容医院"}]},{"cityName":"邯郸","hospitalInfos":[{"geo":{"latitude":36.239048,"longitude":114.434567},"name":"邯郸仁爱妇科医院"}]},{"cityName":"拉萨","hospitalInfos":[{"geo":{"latitude":29.654836,"longitude":91.143225},"name":"西藏博爱医院"},{"geo":{"latitude":29.652483,"longitude":91.141793},"name":"拉萨北大泌尿生殖医院"}]},{"cityName":"银川","hospitalInfos":[{"geo":{"latitude":38.45061,"longitude":106.28253},"name":"宁夏西京妇产医院"}]},{"cityName":"兰州","hospitalInfos":[{"geo":{"latitude":36.041169,"longitude":103.82852},"name":"兰州仁和医院"},{"geo":{"latitude":36.035165,"longitude":103.857597},"name":"兰州天伦不孕症医院","websets":["http://www.lztlyy.com",null,null,null,null]}]},{"cityName":"南宁","hospitalInfos":[{"geo":{"latitude":22.828405,"longitude":108.321451},"name":"南宁曙光医院"},{"geo":{"latitude":22.821636,"longitude":108.302856},"name":"南宁玛利亚医院"},{"address":"广西南宁市西乡塘区明秀西路152号","geo":{"latitude":22.823622,"longitude":108.287552},"name":"南宁天伦医院","phones":["0771-232111",null,null,null,null],"websets":["http://www.nntlbyby.com",null,null,null,null]}]},{"cityName":"桂林","hospitalInfos":[{"geo":{"latitude":25.27332,"longitude":110.30517},"name":"广西阳光医院"},{"geo":{"latitude":25.27332,"longitude":110.30517},"name":"桂林阳光医院"}]},{"cityName":"柳州","hospitalInfos":[{"geo":{"latitude":24.293659,"longitude":109.438629},"name":"柳州福康医院"}]},{"cityName":"伊犁","hospitalInfos":[{"name":"伊犁阳光女子医院"}]},{"cityName":"伊宁","hospitalInfos":[{"name":"伊宁阳光女子医院"}]},{"cityName":"乌鲁木齐","hospitalInfos":[{"name":"新彊维吾尔自治区人民医院肿瘤中心"},{"geo":{"latitude":43.814898,"longitude":87.608186},"name":"新疆爱德华医院"}]},{"cityName":"海口","hospitalInfos":[{"geo":{"latitude":20.049838,"longitude":110.332302},"name":"武警海南总队医院妇科中心"}]},{"cityName":"西宁","hospitalInfos":[{"name":"青海西宁莆田友谊医院"},{"geo":{"latitude":36.629427,"longitude":101.762758},"name":"西宁现代妇产医院"},{"geo":{"latitude":36.629427,"longitude":101.762758},"name":"西宁现代妇产医院"}]},{"cityName":"衡阳","hospitalInfos":[{"geo":{"latitude":26.893123,"longitude":112.592072},"name":"衡阳蒸湘医院"}]},{"cityName":"武进","hospitalInfos":[{"geo":{"latitude":31.7305,"longitude":119.956373},"name":"武进红房子医院"}]},{"cityName":"烟台","hospitalInfos":[{"geo":{"latitude":37.558758,"longitude":121.274491},"name":"烟台丽华妇科医院"}]},{"cityName":"扬州","hospitalInfos":[{"geo":{"latitude":32.39588,"longitude":119.459182},"name":"扬州仁爱医院"}]},{"cityName":"青岛","hospitalInfos":[{"geo":{"latitude":35.949412,"longitude":120.178742},"name":"青岛开发区友爱医院"},{"geo":{"latitude":35.868644,"longitude":119.997039},"name":"胶南丽华医院"}]},{"cityName":"资阳","hospitalInfos":[{"geo":{"latitude":30.142191,"longitude":104.632174},"name":"资阳泌尿专科医院"}]},{"cityName":"泸州","hospitalInfos":[{"geo":{"latitude":28.881219,"longitude":105.454452},"name":"泸州东大肛肠医院"}]},{"cityName":"马鞍山","hospitalInfos":[{"geo":{"latitude":31.6978,"longitude":118.498372},"name":"马鞍山康豪泌尿专科医院"},{"geo":{"latitude":31.689821,"longitude":118.509914},"name":"马鞍山红十字医院"},{"geo":{"latitude":31.659515,"longitude":118.528446},"name":"马鞍山金陵医院"}]},{"cityName":"南宁","hospitalInfos":[{"geo":{"latitude":22.792613,"longitude":108.350544},"name":"广西南宁华美整形美容医院 竹溪大道"},{"geo":{"latitude":22.821139,"longitude":108.354818},"name":"华夏口腔诊所 竹塘路"},{"geo":{"latitude":22.856693,"longitude":108.311141},"name":"南宁长江医院 秀厢大道"},{"geo":{"latitude":22.821636,"longitude":108.302856},"name":"南宁市玛莉亚妇科医院 北大北路"},{"geo":{"latitude":22.854524,"longitude":108.298395},"name":"爱尔眼科 秀灵路"},{"geo":{"latitude":22.828405,"longitude":108.321451},"name":"南宁曙光医院 中华路"},{"geo":{"latitude":22.842743,"longitude":108.31834},"name":"广西中医药大学第一附属医院仁爱分院 明秀东路"},{"name":"都市丽人整形美容 竹溪立交附近"},{"geo":{"latitude":22.860815,"longitude":108.301949},"name":"南宁中山医院 安吉大道"},{"geo":{"latitude":22.803764,"longitude":108.274968},"name":"南宁协和医院 五一路"},{"geo":{"latitude":22.855989,"longitude":108.302289},"name":"南宁医博中医肛肠医院 安吉大道"},{"geo":{"latitude":22.856121,"longitude":108.302147},"name":"南宁肛泰中医肛肠医院 安吉路"},{"geo":{"latitude":22.823622,"longitude":108.287552},"name":"南宁天伦医院 明秀西路"},{"name":"广西阳光医院 疑似莆田系医院或在各医院承包科室"},{"name":"303医院 植物路"},{"geo":{"latitude":22.847689,"longitude":108.284302},"name":"广西武警总队医院 鲁班路"},{"geo":{"latitude":22.845384,"longitude":108.287523},"name":"武警广西总队医院 农院路"},{"geo":{"latitude":22.832285,"longitude":108.294689},"name":"武警广西边防总队医院 明秀西路"},{"geo":{"latitude":22.804545,"longitude":108.314464},"name":"广西军区直属门诊部 桃源路"},{"geo":{"latitude":22.826225,"longitude":108.319796},"name":"南宁市妇幼保健院 友爱南路"},{"geo":{"latitude":22.79539,"longitude":108.363533},"name":"南宁南国妇科医院 竹溪大道"},{"name":"北大妇科医院 大学东路"},{"geo":{"latitude":22.79539,"longitude":108.363533},"name":"南宁南国妇科医院 青山路"},{"geo":{"latitude":22.751548,"longitude":108.317924},"name":"南宁市博大医院 银海大道"},{"geo":{"latitude":22.841564,"longitude":108.338523},"name":"南宁博锐医院 望州路"}]}]