{
  "cityInfos": [
    {
      "cityName": "上海",
      "hospitalInfos": [
        {
          "address": "上海市闵行区合川路3071号",
          "geo": {
            "latitude": 31.17763,
            "longitude": 121.379479
          },
          "name": "上海市闵行区中医医院",
          "phones": [
            "021-51876888",
            null,
            null,
            null,
            null
          ],
          "proofs": [
            "该院003ca href003d\"http://www.tcmmh.com/entry/149\"003e页面003c/a003e信息显示：上海市闵行区卫生局、上海中医药大学附属龙华医院、西红柿投资控股有限公司合作共建闵行区中医医院，其中上海西红柿投资控股集团董事、执行总裁为林一平",
            "003ca href003d\"https://m.imgur.com/ADiokDn\"003e 全国企业信用信息系统003c/a003e显示： 上海西红柿投资控股有限公司的法定代表人是陈金秀，自然人股东包括：李爱兰和陈金秀。",
            " 003ca href003d\"https://webcache.googleusercontent.com/search?q003dcache:D5otmZNe-wMJ:www.ptshsh.com/index.php%3Fm%3Dcms%26q%3Dview%26id%3D33+0026cd003d10026hl003den0026ct003dclnk0026lr003dlang_en%7Clang_zh-CN%7Clang_zh-TW\"003e谷歌缓存页面003c/a003e显示（这是谷歌对003ca href003d\"http://www.ptshsh.com/\"003e上海市莆田商会003c/a003e网页的缓存），陈金秀是上海市莆田商会名誉会长，籍贯：秀屿区东庄镇",
            " 通过“003ca href003d\"http://www.sgs.gov.cn/lz/etpsInfo.do?method003dindex\"003e上海市企业注册登记信息公开003c/a003e”地址003ca href003d\"https://imgur.com/wUqEpMU\"003e查询显示003c/a003e，上海莱茵医院有限公司于今年四月二十八日注销。该公司法定代表人为林一平。",
            null
          ],
          "websets": [
            "http://www.tcmmh.com",
            null,
            null,
            null,
            null
          ]
        },
        {
          "address": "上海市市辖区浦东新区源深路155号",
          "geo": {
            "latitude": 31.239442,
            "longitude": 121.530756
          },
          "name": "上海华美医疗美容医院 ",
          "phones": [
            "021-58856655",
            "400-8806580",
            null,
            null,
            null
          ],
          "proofs": [
            "工信部备案信息，主办单位：上海华美医疗美容医院有限公司；网站负责人：蔡智俊；备案许可证号：沪ICP备13030768号-1   ",
            "上海企业信息登记注册公开查询信息，上海华美医疗美容医院有限公司法定代表人：雷启龙；自然人股东：洪玲燕，黄志佳",
            " 黄志佳相关信息：003ca href003d\"http://zonghui.hxyjw.com/show-146921\"003e莆田青年发展促进会（珠海）第三次交流会顺利召开003c/a003e，（003ca href003d\"https://www.google.com/search?hl003den0026q003d%E9%BB%84%E5%BF%97%E4%BD%B3+site%3Awww.ptshsh.com#newwindow003d10026hl003den0026q003d%E9%BB%84%E5%BF%97%E4%BD%B3+site:ptshsh.com\"003e中国）健康产业总会上海分会筹备大会在沪胜利召开 - 上海市莆田商会003c/a003e。 （请进一步求证。）",
            null,
            null
          ],
          "websets": [
            "http://www.shhuamei.cn",
            null,
            null,
            null,
            null
          ]
        },
        {
          "address": "上海市徐汇区吴中路2号",
          "geo": {
            "latitude": 31.189357,
            "longitude": 121.420663
          },
          "name": "上海万众医院 ",
          "phones": [
            "400-8892218",
            null,
            null,
            null,
            null
          ],
          "proofs": [
            "全国企业信用信息公示系统显示003ca href003d\"http://gsxt.sh.gov.cn/notice/notice/view?uuid003dPS0hIGEWVK63gZt7AqIcxkQZ5Db8QeQZ0026tab003d01\"003e上海万众医院有限公司法定代表人003c/a003e：占阳珊",
            "占阳珊为莆田健康产业总商会常务副会长，上海市福建商会理事。确认参考：003ca href003d\"http://weibo.com/ttarticle/p/show?id003d2309351000123970977124987204\"003e新华网微博003c/a003e，003ca href003d\"https://webcache.googleusercontent.com/search?q003dcache:aEauriVoQOEJ:www.shptsh.com/index.php%3Fm%3Dcms%26q%3Dview%26id%3D94+0026cd003d20026hl003den0026ct003dclnk0026lr003dlang_en%7Clang_zh-CN%7Clang_zh-TW\"003e上海市莆田商会网页谷歌缓存003c/a003e, 新闻“003ca href003d\"http://t1.cn-healthcare.com/article/20150401/content-472036.html\"003e同济大学与莆系医疗合作共建附属医院003c/a003e”。",
            "用户反馈 003ca href003d\"http://health.dahe.cn/yypj/yhb/201207/t20120716_397644.html\"003e患者家属003c/a003e",
            "用户反馈 003ca href003d\"http://webcache.googleusercontent.com/search?q003dcache%3A%2F%2Fhealth.dahe.cn%2Fyypj%2Fyhb%2F201207%2Ft20120716_397644.html0026rlz003d1C5CHFA_enUS659US6590026oq003dcache%3A%2F%2Fhealth.dahe.cn%2Fyypj%2Fyhb%2F201207%2Ft20120716_397644.html0026aqs003dchrome..69i57j69i58.4789j0j40026sourceid003dchrome0026ie003dUTF-8\"003eGoogle缓存003c/a003e",
            "用户反馈 003ca href003d\"http://bbs.tianya.cn/post-41-943030-1.shtml\"003e天涯网友003c/a003e"
          ],
          "websets": [
            "http://www.wz120.cc/",
            null,
            null,
            null,
            null
          ]
        },
        {
          "address": "上海市松江区人民南路39号",
          "geo": {
            "latitude": 31.031347,
            "longitude": 121.24715
          },
          "name": "上海安真医院 ",
          "phones": [
            "021-57711006",
            null,
            null,
            null,
            null
          ]
        },
        {
          "address": "上海市浦东新区惠南镇城南路98号",
          "geo": {
            "latitude": 31.039953,
            "longitude": 121.746705
          },
          "name": "上海福华医院 ",
          "phones": [
            "021-51961999",
            null,
            null,
            null,
            null
          ]
        },
        {
          "address": "上海市青浦区公园路380号",
          "geo": {
            "latitude": 31.148965,
            "longitude": 121.118921
          },
          "name": "上海玛丽女子医院 ",
          "phones": [
            "021-69726299",
            null,
            null,
            null,
            null
          ],
          "websets": [
            "http://www.mary120.cn/",
            "http://www.shmary.cn/",
            null,
            null,
            null
          ]
        },
        {
          "address": "上海市长宁区延安西路934号",
          "name": "上海真爱女子医院 ",
          "phones": [
            "021-62269000",
            "400-880-5522",
            "4006-006-530",
            null,
            null
          ],
          "websets": [
            "http://www.shzhenai.com/[官网变了]",
            "http://shzhenai.sh.aimeicity.com/",
            "http://www.shzazx.com/",
            null,
            null
          ]
        },
        {
          "geo": {
            "latitude": 31.156646,
            "longitude": 121.442923
          },
          "name": "上海沪申五官科医院 ",
          "phones": [
            "021-54305338",
            null,
            null,
            null,
            null
          ],
          "websets": [
            "http://www.hs5g.com",
            null,
            null,
            null,
            null
          ]
        },
        {
          "address": "上海市徐汇区龙漕路218号",
          "geo": {
            "latitude": 31.169576,
            "longitude": 121.442363
          },
          "name": "上海远大心胸医院 ",
          "phones": [
            "021-64829999",
            null,
            null,
            null,
            null
          ],
          "websets": [
            "http://www.yodak.net/",
            null,
            null,
            null,
            null
          ]
        },
        {
          "address": "上海市徐汇区漕溪路133号(近万体馆)",
          "name": "上海仁爱医院 ",
          "phones": [
            "021-64688888",
            null,
            null,
            null,
            null
          ],
          "websets": [
            "http://www.renai.cn/",
            "http://en.renai.cn/",
            null,
            null,
            null
          ]
        },
        {
          "geo": {
            "latitude": 31.216069,
            "longitude": 121.41164
          },
          "name": "上海天大医疗美容医院 ",
          "phones": [
            "021 -64080808",
            null,
            null,
            null,
            null
          ],
          "websets": [
            "http://www.tida.sh.cn",
            "http://www.tida120.com",
            null,
            null,
            null
          ]
        },
        {
          "geo": {
            "latitude": 31.216125,
            "longitude": 121.442947
          },
          "name": "上海五官科医院院方申明 www.fdeent.org/content/4408 [这个资料不好找]",
          "websets": [
            "http://www.er021.com",
            null,
            null,
            null,
            null
          ]
        },
        {
          "name": "上海博爱医院"
        },
        {
          "address": "上海长宁区虹古路85号(虹桥开发区西侧)",
          "geo": {
            "latitude": 31.216621,
            "longitude": 121.411435
          },
          "name": "上海新虹桥医院 [没有找到，可能是上海九龙男子医院]",
          "phones": [
            "021-62092255",
            null,
            null,
            null,
            null
          ],
          "websets": [
            "http://www.xinhongqiao.cn/",
            null,
            null,
            null,
            null
          ]
        },
        {
          "address": "上海市闵行区虹梅路2181号（近吴中路）",
          "geo": {
            "latitude": 31.174789,
            "longitude": 121.394826
          },
          "name": "上海虹桥医院 ",
          "phones": [
            "021-64659999",
            null,
            null,
            null,
            null
          ],
          "websets": [
            "http://www.shhqyy.com",
            null,
            null,
            null,
            null
          ]
        },
        {
          "address": "上海市长宁区中山西路333号（近中山公园）",
          "geo": {
            "latitude": 31.216621,
            "longitude": 121.411435
          },
          "name": "上海九龙男子医院 ",
          "phones": [
            "021-52739067",
            "021-52732699",
            null,
            null,
            null
          ],
          "websets": [
            "http://www.long120.cn",
            "http://www.shjlnzyy.com/",
            null,
            null,
            null
          ]
        },
        {
          "address": "上海市普陀区曹安路1352号",
          "geo": {
            "latitude": 31.204532,
            "longitude": 121.513697
          },
          "name": "上海城市女子医院 [没有找到,可能和上海南浦妇科医院是一家医院，可能]",
          "phones": [
            "021-51092999",
            null,
            null,
            null,
            null
          ],
          "websets": [
            "http://www.28567.hos.999120.net/",
            null,
            null,
            null,
            null
          ]
        },
        {
          "address": "上海市长宁区剑河路595号4号楼",
          "geo": {
            "latitude": 31.207684,
            "longitude": 121.368794
          },
          "name": "上海西郊骨科医院 ",
          "phones": [
            "021-52208866",
            "136-5172-4016",
            null,
            null,
            null
          ],
          "websets": [
            "http://www.sdaj.net/",
            "http://www.gb5u.com/",
            "http://www.gkyy120.com/",
            "http://www.cqgkzj.com/",
            null
          ]
        },
        {
          "address": "上海市杨浦区宁国路313弄-4号",
          "geo": {
            "latitude": 31.265116,
            "longitude": 121.535747
          },
          "name": "上海真美妇科医院 ",
          "phones": [
            "021-55099999",
            null,
            null,
            null,
            null
          ],
          "websets": [
            "http://www.giivi.com/",
            "http://www.zdia.net/",
            null,
            null,
            null
          ]
        },
        {
          "address": "上海市浦东新区浦东南路2250号（南浦大桥下）",
          "geo": {
            "latitude": 31.204532,
            "longitude": 121.513697
          },
          "name": "上海南浦妇科医院 ",
          "phones": [
            "021-58891199",
            "158-2160-8827",
            null,
            null,
            null
          ],
          "proofs": [
            "这是百度和谷歌发现网址最多的医院",
            "最后一个网址http://yyk.qqyy.com/h14964/ 所属全球医院网http://www.qqyy.com/ 003ca href003d\"https://m.imgur.com/VqVuGnj\"003e工信部备案信息003c/a003e为闽ICP备09014062号, 2014-11-06, 福州网健天下网络科技有限公司,",
            "谷歌搜索关键词： 医院 site:*.qqyy.com 可以发现很多在这个名单上出现的医院，可以为进一步搜索参考。",
            "天涯帖子 003ca href003d\"http://bbs.tianya.cn/post-828-784859-1.shtml\"003e上海南浦妇科医院的受害者 该怎么维权？003c/a003e",
            "网址http://www.pmref.com/ 将自己称为上海松江区妇科医院，而电话仍然是021-58891199，并且在这个网页http://www.pmref.com/yyjs/51.html 显示为南浦妇科医院"
          ],
          "websets": [
            "http://www.nanpuyy.com/",
            "http://www.brandv.org/",
            "http://www.fyjx.org/",
            "http://www.fdfzxy.org/",
            "http://www.acgene.org/"
          ]
        },
        {
          "geo": {
            "latitude": 31.252047,
            "longitude": 121.464702
          },
          "name": "上海健桥医院 ",
          "phones": [
            "021-56659999",
            null,
            null,
            null,
            null
          ],
          "websets": [
            "http://www.jqbyby.com",
            null,
            null,
            null,
            null
          ]
        },
        {
          "geo": {
            "latitude": 31.256257,
            "longitude": 121.498543
          },
          "name": "上海长江医院 ",
          "phones": [
            "021-65022556",
            null,
            null,
            null,
            null
          ],
          "websets": [
            "http://www.cjhospital.com",
            null,
            null,
            null,
            null
          ]
        },
        {
          "name": "解放军411医院 ",
          "phones": [
            "400-0789411",
            null,
            null,
            null,
            null
          ],
          "websets": [
            "http://www.sh411wgk.com",
            null,
            null,
            null,
            null
          ]
        },
        {
          "name": "上海阳光中医医院 [没有找到]"
        },
        {
          "geo": {
            "latitude": 31.373754,
            "longitude": 121.497228
          },
          "name": "上海英港泌尿外科医院 "
        },
        {
          "geo": {
            "latitude": 31.211873,
            "longitude": 121.484515
          },
          "name": "上海阿波罗男子医院 "
        },
        {
          "geo": {
            "latitude": 31.246994,
            "longitude": 121.451857
          },
          "name": "上海玫瑰女子医院 "
        },
        {
          "geo": {
            "latitude": 31.116296,
            "longitude": 121.619872
          },
          "name": "上海康新医院 "
        },
        {
          "geo": {
            "latitude": 31.210786,
            "longitude": 121.552154
          },
          "name": "上海圣爱医院 "
        },
        {
          "geo": {
            "latitude": 31.161389,
            "longitude": 121.105799
          },
          "name": "上海同德医院 "
        },
        {
          "geo": {
            "latitude": 31.202076,
            "longitude": 121.696158
          },
          "name": "上海安平医院 "
        },
        {
          "name": "江东泌尿外科医院 "
        },
        {
          "geo": {
            "latitude": 31.269384,
            "longitude": 121.3869
          },
          "name": "上海九州泌尿医院 "
        },
        {
          "geo": {
            "latitude": 31.159966,
            "longitude": 121.115297
          },
          "name": "上海青城医院 "
        },
        {
          "geo": {
            "latitude": 31.005671,
            "longitude": 121.229852
          },
          "name": "上海博大医院 "
        },
        {
          "geo": {
            "latitude": 31.373091,
            "longitude": 121.235214
          },
          "name": "上海中亚医院 "
        },
        {
          "geo": {
            "latitude": 31.22254,
            "longitude": 121.47887
          },
          "name": "上海时光整形外科医院 "
        },
        {
          "geo": {
            "latitude": 31.21632,
            "longitude": 121.494477
          },
          "name": "上海市黄浦区中西医结合医院 "
        },
        {
          "geo": {
            "latitude": 31.222431,
            "longitude": 121.478888
          },
          "name": "上海曙康口腔医院 "
        },
        {
          "geo": {
            "latitude": 31.201279,
            "longitude": 121.712768
          },
          "name": "上海市浦东新区传染病医院 "
        },
        {
          "geo": {
            "latitude": 31.186401,
            "longitude": 121.59392
          },
          "name": "上海中医药大学附属曙光医院 "
        },
        {
          "geo": {
            "latitude": 31.201276,
            "longitude": 121.712772
          },
          "name": "浦东肝病专科医院 "
        },
        {
          "name": "众仁曙光医疗保健中心 "
        },
        {
          "geo": {
            "latitude": 31.006851,
            "longitude": 121.252281
          },
          "name": "上海市松江区方塔中医医院 "
        },
        {
          "geo": {
            "latitude": 31.377061,
            "longitude": 121.23477
          },
          "name": "上海嘉华医院 "
        },
        {
          "geo": {
            "latitude": 31.178428,
            "longitude": 121.406845
          },
          "name": "上海中骏医学科学研究所 "
        },
        {
          "address": "上海市虹口区凉城路545号",
          "geo": {
            "latitude": 31.290789,
            "longitude": 121.470861
          },
          "name": "上海天伦医院 ",
          "phones": [
            "021-65667633",
            "021-65259999",
            "+9864006660102",
            "021-55158829",
            null
          ],
          "websets": [
            "http://www.shtl120.com/",
            "http://www.sh-byby.org/",
            "http://www.shtlyy.com/",
            "http://www.shtianlun.org/",
            "http://www.tianlun100.com/"
          ]
        },
        {
          "address": "上海市南汇区惠南镇人民西路99号",
          "name": "上海国正医院 [没有找到]",
          "phones": [
            "021-58009999",
            "18801856118",
            null,
            null,
            null
          ],
          "websets": [
            "http://23759.zhaopin.job120.com/",
            "http://shgzyy.cn.b2b168.com/",
            null,
            null,
            null
          ]
        },
        {
          "address": "上海长宁区延安西路789号美莱大厦, 曹家堰路88号 ",
          "geo": {
            "latitude": 31.213667,
            "longitude": 121.43447
          },
          "name": "上海美莱医疗美容医院 ",
          "phones": [
            "021-2223 5555",
            null,
            null,
            null,
            null
          ],
          "proofs": [
            "所属为：美莱医疗美容(连锁)医院集团 http://www.mylike.com/，详见文末\"美莱医疗美容(连锁)医院集团\"为莆田系信息。",
            null,
            null,
            null,
            null
          ],
          "websets": [
            "http://www.shmylike.com/",
            null,
            null,
            null,
            null
          ]
        },
        {
          "address": "上海市长宁区安龙路835号",
          "geo": {
            "latitude": 31.208658,
            "longitude": 121.387326
          },
          "name": "上海东方丽人医疗美容医院",
          "phones": [
            "400-630-6997",
            "1379444015",
            null,
            null,
            null
          ],
          "proofs": [
            " 工信部备案信息： 闽ICP备15019526号，主办单位性质：个人；主办单位名称/网站负责人：胡森森； 网站名称：麦凯乐网(和网站显示名称严重不符) ",
            null,
            null,
            null,
            null
          ],
          "websets": [
            "http://www.4006306997.com/index.html",
            null,
            null,
            null,
            null
          ]
        }
      ]
    }
  ]
}